locationid,year,month,temperature,latitude,longitude,elevation,station,countryid,country,latabs
JA000047401,2019,1,-4.15,45.417,141.683,12.0,WAKKANAI,JA,Japan,45.417
JA000047402,2019,1,-5.58,44.933,142.583,8.0,KITAMIESASHI,JA,Japan,44.933
JA000047404,2019,1,-4.19,44.367,141.7,10.0,HABORO,JA,Japan,44.367
JA000047405,2019,1,-5.79,44.583,142.967,15.0,OMU,JA,Japan,44.583
JA000047406,2019,1,-3.98,43.95,141.633,28.0,RUMOI,JA,Japan,43.95
JA000047407,2019,1,-7.15,43.767,142.367,116.0,ASAHIKAWA,JA,Japan,43.767
JA000047409,2019,1,-5.7,44.017,144.283,43.0,ABASHIRI,JA,Japan,44.017
JA000047411,2019,1,-2.92,43.183,141.017,26.0,OTARU,JA,Japan,43.183
JA000047412,2019,1,-3.05,43.067,141.333,26.0,SAPPORO,JA,Japan,43.067
JA000047413,2019,1,-5.02,43.217,141.783,51.0,IWAMIZAWA,JA,Japan,43.217
JA000047417,2019,1,-6.16,42.917,143.217,43.0,OBIHIRO,JA,Japan,42.917
JA000047418,2019,1,-5.35,42.95,144.433,16.0,KUSHIRO,JA,Japan,42.95
JA000047420,2019,1,-4.2,43.333,145.583,39.0,NEMURO,JA,Japan,43.333
JA000047421,2019,1,-2.0,42.8,140.217,38.0,SUTTSU,JA,Japan,42.8
JA000047423,2019,1,-1.66,42.317,140.983,49.0,MURORAN,JA,Japan,42.317
JA000047424,2019,1,-3.5,42.617,141.55,11.0,TOMAKOMAI,JA,Japan,42.617
JA000047426,2019,1,-2.65,42.167,142.783,37.0,URAKAWA,JA,Japan,42.167
JA000047428,2019,1,-0.54,41.867,140.117,12.0,ESASHI,JA,Japan,41.867
JA000047430,2019,1,-2.6,41.817,140.75,43.0,HAKODATE,JA,Japan,41.817
JA000047433,2019,1,-4.8,42.9,140.75,188.0,KUTCHAN,JA,Japan,42.9
JA000047435,2019,1,-5.25,44.35,143.35,16.0,MOMBETSU,JA,Japan,44.35
JA000047440,2019,1,-4.08,42.3,143.317,33.0,HIROO,JA,Japan,42.3
JA000047512,2019,1,1.25,39.067,141.717,41.0,OFUNATO,JA,Japan,39.067
JA000047520,2019,1,-0.65,38.75,140.317,102.0,SHINJO,JA,Japan,38.75
JA000047570,2019,1,0.0,37.483,139.917,213.0,WAKAMATSU,JA,Japan,37.483
JA000047574,2019,1,0.25,40.65,139.933,67.0,FUKAURA,JA,Japan,40.65
JA000047575,2019,1,-0.55,40.817,140.767,3.0,AOMORI,JA,Japan,40.817
JA000047576,2019,1,-0.95,41.283,141.217,5.0,MUTSU,JA,Japan,41.283
JA000047581,2019,1,-0.52,40.533,141.517,28.0,HACHINOHE,JA,Japan,40.533
JA000047582,2019,1,1.1,39.717,140.1,7.0,AKITA,JA,Japan,39.717
JA000047584,2019,1,-1.2,39.7,141.167,155.0,MORIOKA,JA,Japan,39.7
JA000047585,2019,1,0.71,39.65,141.967,46.0,MIYAKO,JA,Japan,39.65
JA000047587,2019,1,2.57,38.8,139.783,26.0,SHONAI,JA,Japan,38.8
JA000047588,2019,1,0.03,38.25,140.35,153.0,YAMAGATA,JA,Japan,38.25
JA000047590,2019,1,2.65,38.267,140.9,43.0,SENDAI,JA,Japan,38.267
JA000047592,2019,1,1.16,38.433,141.3,43.0,ISHINOMAKI,JA,Japan,38.433
JA000047597,2019,1,0.8,37.133,140.217,357.0,SHIRAKAWA,JA,Japan,37.133
JA000047598,2019,1,4.29,36.95,140.9,5.0,ONAHAMA,JA,Japan,36.95
JA000047600,2019,1,3.6,37.4,136.9,15.0,WAJIMA,JA,Japan,37.4
JA000047602,2019,1,4.45,38.033,138.233,17.0,AIKAWA,JA,Japan,38.033
JA000047604,2019,1,3.35,37.917,139.05,6.0,NIIGATA,JA,Japan,37.917
JA000047605,2019,1,4.5,36.583,136.633,33.0,KANAZAWA,JA,Japan,36.583
JA000047606,2019,1,3.2,36.8,137.05,13.0,FUSHIKI,JA,Japan,36.8
JA000047607,2019,1,3.41,36.717,137.2,17.0,TOYAMA,JA,Japan,36.717
JA000047610,2019,1,-0.25,36.667,138.2,419.0,NAGANO,JA,Japan,36.667
JA000047612,2019,1,2.46,37.1,138.25,18.0,TAKADA,JA,Japan,37.1
JA000047615,2019,1,2.97,36.55,139.867,140.0,UTSUNOMIYA,JA,Japan,36.55
JA000047616,2019,1,3.72,36.05,136.217,17.0,FUKUI,JA,Japan,36.05
JA000047617,2019,1,-1.14,36.15,137.25,561.0,TAKAYAMA,JA,Japan,36.15
JA000047618,2019,1,-0.23,36.25,137.967,611.0,MATSUMOTO,JA,Japan,36.25
JA000047620,2019,1,-0.79,36.05,138.117,762.0,SUWA,JA,Japan,36.05
JA000047622,2019,1,-3.3,36.35,138.55,1004.0,KARUIZAWA,JA,Japan,36.35
JA000047624,2019,1,4.6,36.4,139.067,113.0,MAEBASHI,JA,Japan,36.4
JA000047626,2019,1,4.53,36.15,139.383,31.0,KUMAGAYA,JA,Japan,36.15
JA000047629,2019,1,3.8,36.383,140.467,31.0,MITO,JA,Japan,36.383
JA000047631,2019,1,5.27,35.65,136.067,12.0,TSURUGA,JA,Japan,35.65
JA000047632,2019,1,4.94,35.4,136.767,17.0,GIFU,JA,Japan,35.4
JA000047636,2019,1,5.45,35.167,136.967,56.0,NAGOYA,JA,Japan,35.167
JA000047637,2019,1,1.55,35.517,137.817,529.0,IIDA,JA,Japan,35.517
JA000047638,2019,1,3.64,35.667,138.55,281.0,KOFU,JA,Japan,35.667
JA000047640,2019,1,0.41,35.5,138.767,861.0,KAWAGUCHIKO,JA,Japan,35.5
JA000047641,2019,1,2.29,35.983,139.067,234.0,CHICHIBU,JA,Japan,35.983
JA000047648,2019,1,6.55,35.733,140.85,28.0,CHOSHI,JA,Japan,35.733
JA000047649,2019,1,3.76,34.767,136.15,161.0,UENO,JA,Japan,34.767
JA000047651,2019,1,6.25,34.733,136.517,18.0,TSU,JA,Japan,34.733
JA000047653,2019,1,6.32,34.633,137.1,8.0,IRAKO,JA,Japan,34.633
JA000047654,2019,1,6.61,34.717,137.717,33.0,HAMAMATSU,JA,Japan,34.717
JA000047655,2019,1,7.7,34.6,138.217,47.0,OMAEZAKI,JA,Japan,34.6
JA000047656,2019,1,7.67,34.983,138.4,15.0,SHIZUOKA,JA,Japan,34.983
JA000047657,2019,1,6.38,35.117,138.933,22.0,MISHIMA,JA,Japan,35.117
JA000047662,2019,1,5.85,35.683,139.767,36.0,TOKYO,JA,Japan,35.683
JA000047663,2019,1,7.03,34.067,136.2,27.0,OWASE,JA,Japan,34.067
JA000047666,2019,1,9.01,34.6,138.85,56.0,IROZAKI,JA,Japan,34.6
JA000047668,2019,1,7.7,35.05,139.1,68.0,AJIRO,JA,Japan,35.05
JA000047670,2019,1,6.55,35.433,139.65,42.0,YOKOHAMA,JA,Japan,35.433
JA000047672,2019,1,7.01,34.983,139.867,7.0,TATEYAMA,JA,Japan,34.983
JA000047674,2019,1,7.17,35.15,140.317,13.0,KATSUURA,JA,Japan,35.15
JA000047675,2019,1,8.3,34.75,139.383,79.0,OSHIMA,JA,Japan,34.75
JA000047677,2019,1,10.84,34.117,139.517,37.0,MIYAKEJIMA,JA,Japan,34.117
JA000047678,2019,1,10.5,33.117,139.783,80.0,HACHIJOJIMA,JA,Japan,33.117
JA000047682,2019,1,6.35,35.6,140.1,19.0,CHIBA,JA,Japan,35.6
JA000047684,2019,1,4.62,34.933,136.583,56.0,YOKKAICHI,JA,Japan,34.933
JA000047690,2019,1,-3.87,36.733,139.5,1294.0,NIKKO,JA,Japan,36.733
JA000047740,2019,1,5.4,36.2,133.333,31.0,SAIGO,JA,Japan,36.2
JA000047741,2019,1,5.9,35.45,133.067,23.0,MATSUE,JA,Japan,35.45
JA000047742,2019,1,6.23,35.55,133.233,3.0,SAKAI,JA,Japan,35.55
JA000047744,2019,1,5.82,35.433,133.333,9.0,YONAGO,JA,Japan,35.433
JA000047746,2019,1,5.4,35.483,134.233,16.0,TOTTORI,JA,Japan,35.483
JA000047747,2019,1,4.55,35.5,134.783,183.0,TAJIMA,JA,Japan,35.5
JA000047750,2019,1,4.65,35.45,135.333,30.0,MAIZURU_REG_MET_HQ,JA,Japan,35.45
JA000047754,2019,1,7.68,34.683,131.783,57.0,IWAMI_AIRPORT,JA,Japan,34.683
JA000047755,2019,1,7.35,34.9,132.067,20.0,HAMADA,JA,Japan,34.9
JA000047756,2019,1,3.08,35.067,134.017,147.0,TSUYAMA,JA,Japan,35.067
JA000047759,2019,1,5.12,35.017,135.733,46.0,KYOTO,JA,Japan,35.017
JA000047761,2019,1,4.58,35.283,136.25,89.0,HIKONE,JA,Japan,35.283
JA000047762,2019,1,8.47,33.95,130.933,19.0,SHIMONOSEKI,JA,Japan,33.95
JA000047765,2019,1,6.9,34.4,132.467,53.0,HIROSHIMA,JA,Japan,34.4
JA000047767,2019,1,5.55,34.45,133.25,3.0,FUKUYAMA,JA,Japan,34.45
JA000047768,2019,1,5.37,34.667,133.917,18.0,OKAYAMA,JA,Japan,34.667
JA000047769,2019,1,4.97,34.833,134.667,40.0,HIMEJI,JA,Japan,34.833
JA000047770,2019,1,6.69,34.7,135.217,30.0,KOBE,JA,Japan,34.7
JA000047772,2019,1,7.55,34.433,135.25,8.0,KANSAI_INTERNATIONA,JA,Japan,34.433
JA000047776,2019,1,6.0,34.333,134.9,112.0,SUMOTO,JA,Japan,34.333
JA000047777,2019,1,6.68,34.233,135.167,18.0,WAKAYAMA,JA,Japan,34.233
JA000047778,2019,1,8.75,33.45,135.75,76.0,SHIONOMISAKI,JA,Japan,33.45
JA000047780,2019,1,4.77,34.7,135.833,106.0,NARA,JA,Japan,34.7
JA000047784,2019,1,5.28,34.167,131.45,18.0,YAMAGUCHI,JA,Japan,34.167
JA000047800,2019,1,6.8,34.2,129.3,19.0,IZUHARA,JA,Japan,34.2
JA000047805,2019,1,8.08,33.367,129.55,59.0,HIRADO,JA,Japan,33.367
JA000047807,2019,1,8.05,33.583,130.383,15.0,FUKUOKA,JA,Japan,33.583
JA000047809,2019,1,6.3,33.65,130.699,38.0,IIZUKA,JA,Japan,33.65
JA000047813,2019,1,6.89,33.267,130.3,32.0,SAGA,JA,Japan,33.267
JA000047814,2019,1,5.1,33.317,130.933,84.0,HITA,JA,Japan,33.317
JA000047815,2019,1,7.8,33.233,131.617,13.0,OITA,JA,Japan,33.233
JA000047817,2019,1,8.15,32.732,129.866,35.0,NAGASAKI,JA,Japan,32.732
JA000047819,2019,1,6.81,32.817,130.699,39.0,KUMAMOTO,JA,Japan,32.817
JA000047822,2019,1,7.98,32.583,131.65,21.0,NOBEOKA,JA,Japan,32.583
JA000047823,2019,1,8.81,32.033,130.199,45.0,AKUNE,JA,Japan,32.033
JA000047824,2019,1,5.72,32.217,130.75,147.0,HITOYOSHI,JA,Japan,32.217
JA000047827,2019,1,10.05,31.55,130.55,32.0,KAGOSHIMA,JA,Japan,31.55
JA000047829,2019,1,7.21,31.733,131.083,156.0,MIYAKONOJO,JA,Japan,31.733
JA000047830,2019,1,9.5,31.933,131.417,15.0,MIYAZAKI,JA,Japan,31.933
JA000047831,2019,1,9.67,31.267,130.3,31.0,MAKURAZAKI,JA,Japan,31.267
JA000047835,2019,1,9.99,31.583,131.4,15.0,ABURATSU,JA,Japan,31.583
JA000047836,2019,1,12.68,30.383,130.667,38.0,YAKUSHIMA,JA,Japan,30.383
JA000047837,2019,1,12.45,30.733,130.983,18.0,TANEGASHIMA,JA,Japan,30.733
JA000047838,2019,1,9.61,31.717,130.032,14.0,USHIBUKA,JA,Japan,31.717
JA000047843,2019,1,8.1,32.7,128.833,26.0,FUKUE,JA,Japan,32.7
JA000047887,2019,1,7.2,33.85,132.783,34.0,MATSUYAMA,JA,Japan,33.85
JA000047890,2019,1,7.26,34.283,133.75,5.0,TADOTSU,JA,Japan,34.283
JA000047891,2019,1,6.7,34.317,134.05,10.0,TAKAMATSU,JA,Japan,34.317
JA000047892,2019,1,7.78,33.233,132.55,14.0,UWAJIMA,JA,Japan,33.233
JA000047893,2019,1,7.85,33.567,133.55,5.0,KOCHI,JA,Japan,33.567
JA000047895,2019,1,7.25,34.067,134.567,6.0,TOKUSHIMA,JA,Japan,34.067
JA000047897,2019,1,8.45,32.917,132.7,11.0,SUKUMO,JA,Japan,32.917
JA000047898,2019,1,9.84,32.717,133.017,33.0,SHIMIZU,JA,Japan,32.717
JA000047899,2019,1,8.54,33.25,134.183,186.0,MUROTOMISAKI,JA,Japan,33.25
JA000047909,2019,1,15.7,28.383,129.5,8.0,NAZE,JA,Japan,28.383
JA000047927,2019,1,20.17,24.817,125.133,16.0,SHIMOJISHIMA,JA,Japan,24.817
JA000047929,2019,1,18.03,26.333,126.8,5.0,KUMEJIMA,JA,Japan,26.333
JA000047936,2019,1,18.25,26.2,127.683,53.0,NAHA,JA,Japan,26.2
JA000047940,2019,1,17.42,26.6,127.967,7.0,NAGO,JA,Japan,26.6
JA000047942,2019,1,17.73,27.033,128.4,16.0,YORON,JA,Japan,27.033
JA000047945,2019,1,,25.933,131.317,24.0,KITADAITO,JA,Japan,25.933
JA000047991,2019,1,22.15,24.3,153.967,6.1,MINAMI_TORI_SHIMA_MA,JA,Japan,24.3
JAM00047772,2019,1,6.65,34.683,135.517,83.0,OSAKA,JA,Japan,34.683
JAM00047918,2019,1,20.1,24.345,124.187,28.3,ISHIGAKI,JA,Japan,24.345
JAM00047927,2019,1,19.55,24.783,125.295,45.7,MIYAKO,JA,Japan,24.783
JAM00047945,2019,1,18.3,25.847,131.263,50.9,MINAMI_DAITO,JA,Japan,25.847
JAW00042402,2019,1,18.3,27.0833,142.2,8.2,CHICHI_JIMA_BONIN_IS,JA,Japan,27.0833
JA000047401,2019,2,-4.7,45.417,141.683,12.0,WAKKANAI,JA,Japan,45.417
JA000047402,2019,2,-5.31,44.933,142.583,8.0,KITAMIESASHI,JA,Japan,44.933
JA000047404,2019,2,-3.35,44.367,141.7,10.0,HABORO,JA,Japan,44.367
JA000047405,2019,2,-5.86,44.583,142.967,15.0,OMU,JA,Japan,44.583
JA000047406,2019,2,-3.17,43.95,141.633,28.0,RUMOI,JA,Japan,43.95
JA000047407,2019,2,-5.95,43.767,142.367,116.0,ASAHIKAWA,JA,Japan,43.767
JA000047409,2019,2,-6.0,44.017,144.283,43.0,ABASHIRI,JA,Japan,44.017
JA000047411,2019,2,-2.66,43.183,141.017,26.0,OTARU,JA,Japan,43.183
JA000047412,2019,2,-2.7,43.067,141.333,26.0,SAPPORO,JA,Japan,43.067
JA000047413,2019,2,-4.16,43.217,141.783,51.0,IWAMIZAWA,JA,Japan,43.217
JA000047417,2019,2,-4.94,42.917,143.217,43.0,OBIHIRO,JA,Japan,42.917
JA000047418,2019,2,-5.4,42.95,144.433,16.0,KUSHIRO,JA,Japan,42.95
JA000047420,2019,2,-4.55,43.333,145.583,39.0,NEMURO,JA,Japan,43.333
JA000047421,2019,2,-2.05,42.8,140.217,38.0,SUTTSU,JA,Japan,42.8
JA000047423,2019,2,-1.41,42.317,140.983,49.0,MURORAN,JA,Japan,42.317
JA000047424,2019,2,-3.14,42.617,141.55,11.0,TOMAKOMAI,JA,Japan,42.617
JA000047426,2019,2,-2.65,42.167,142.783,37.0,URAKAWA,JA,Japan,42.167
JA000047428,2019,2,0.04,41.867,140.117,12.0,ESASHI,JA,Japan,41.867
JA000047430,2019,2,-2.05,41.817,140.75,43.0,HAKODATE,JA,Japan,41.817
JA000047433,2019,2,-4.82,42.9,140.75,188.0,KUTCHAN,JA,Japan,42.9
JA000047435,2019,2,-5.19,44.35,143.35,16.0,MOMBETSU,JA,Japan,44.35
JA000047440,2019,2,-3.46,42.3,143.317,33.0,HIROO,JA,Japan,42.3
JA000047512,2019,2,1.98,39.067,141.717,41.0,OFUNATO,JA,Japan,39.067
JA000047520,2019,2,0.21,38.75,140.317,102.0,SHINJO,JA,Japan,38.75
JA000047570,2019,2,1.7,37.483,139.917,213.0,WAKAMATSU,JA,Japan,37.483
JA000047574,2019,2,0.9,40.65,139.933,67.0,FUKAURA,JA,Japan,40.65
JA000047575,2019,2,0.05,40.817,140.767,3.0,AOMORI,JA,Japan,40.817
JA000047576,2019,2,-0.68,41.283,141.217,5.0,MUTSU,JA,Japan,41.283
JA000047581,2019,2,0.13,40.533,141.517,28.0,HACHINOHE,JA,Japan,40.533
JA000047582,2019,2,1.55,39.717,140.1,7.0,AKITA,JA,Japan,39.717
JA000047584,2019,2,0.1,39.7,141.167,155.0,MORIOKA,JA,Japan,39.7
JA000047585,2019,2,1.32,39.65,141.967,46.0,MIYAKO,JA,Japan,39.65
JA000047587,2019,2,3.45,38.8,139.783,26.0,SHONAI,JA,Japan,38.8
JA000047588,2019,2,1.66,38.25,140.35,153.0,YAMAGATA,JA,Japan,38.25
JA000047590,2019,2,3.95,38.267,140.9,43.0,SENDAI,JA,Japan,38.267
JA000047592,2019,2,2.47,38.433,141.3,43.0,ISHINOMAKI,JA,Japan,38.433
JA000047597,2019,2,2.64,37.133,140.217,357.0,SHIRAKAWA,JA,Japan,37.133
JA000047598,2019,2,5.78,36.95,140.9,5.0,ONAHAMA,JA,Japan,36.95
JA000047600,2019,2,4.3,37.4,136.9,15.0,WAJIMA,JA,Japan,37.4
JA000047602,2019,2,4.83,38.033,138.233,17.0,AIKAWA,JA,Japan,38.033
JA000047604,2019,2,4.25,37.917,139.05,6.0,NIIGATA,JA,Japan,37.917
JA000047605,2019,2,5.7,36.583,136.633,33.0,KANAZAWA,JA,Japan,36.583
JA000047606,2019,2,4.82,36.8,137.05,13.0,FUSHIKI,JA,Japan,36.8
JA000047607,2019,2,4.96,36.717,137.2,17.0,TOYAMA,JA,Japan,36.717
JA000047610,2019,2,1.75,36.667,138.2,419.0,NAGANO,JA,Japan,36.667
JA000047612,2019,2,3.42,37.1,138.25,18.0,TAKADA,JA,Japan,37.1
JA000047615,2019,2,5.0,36.55,139.867,140.0,UTSUNOMIYA,JA,Japan,36.55
JA000047616,2019,2,5.36,36.05,136.217,17.0,FUKUI,JA,Japan,36.05
JA000047617,2019,2,1.31,36.15,137.25,561.0,TAKAYAMA,JA,Japan,36.15
JA000047618,2019,2,2.11,36.25,137.967,611.0,MATSUMOTO,JA,Japan,36.25
JA000047620,2019,2,1.18,36.05,138.117,762.0,SUWA,JA,Japan,36.05
JA000047622,2019,2,-1.44,36.35,138.55,1004.0,KARUIZAWA,JA,Japan,36.35
JA000047624,2019,2,6.15,36.4,139.067,113.0,MAEBASHI,JA,Japan,36.4
JA000047626,2019,2,6.18,36.15,139.383,31.0,KUMAGAYA,JA,Japan,36.15
JA000047629,2019,2,5.55,36.383,140.467,31.0,MITO,JA,Japan,36.383
JA000047631,2019,2,6.76,35.65,136.067,12.0,TSURUGA,JA,Japan,35.65
JA000047632,2019,2,7.22,35.4,136.767,17.0,GIFU,JA,Japan,35.4
JA000047636,2019,2,7.7,35.167,136.967,56.0,NAGOYA,JA,Japan,35.167
JA000047637,2019,2,3.85,35.517,137.817,529.0,IIDA,JA,Japan,35.517
JA000047638,2019,2,6.23,35.667,138.55,281.0,KOFU,JA,Japan,35.667
JA000047640,2019,2,2.78,35.5,138.767,861.0,KAWAGUCHIKO,JA,Japan,35.5
JA000047641,2019,2,3.84,35.983,139.067,234.0,CHICHIBU,JA,Japan,35.983
JA000047648,2019,2,8.55,35.733,140.85,28.0,CHOSHI,JA,Japan,35.733
JA000047649,2019,2,5.39,34.767,136.15,161.0,UENO,JA,Japan,34.767
JA000047651,2019,2,7.55,34.733,136.517,18.0,TSU,JA,Japan,34.733
JA000047653,2019,2,7.8,34.633,137.1,8.0,IRAKO,JA,Japan,34.633
JA000047654,2019,2,8.9,34.717,137.717,33.0,HAMAMATSU,JA,Japan,34.717
JA000047655,2019,2,9.65,34.6,138.217,47.0,OMAEZAKI,JA,Japan,34.6
JA000047656,2019,2,9.66,34.983,138.4,15.0,SHIZUOKA,JA,Japan,34.983
JA000047657,2019,2,8.7,35.117,138.933,22.0,MISHIMA,JA,Japan,35.117
JA000047662,2019,2,7.45,35.683,139.767,36.0,TOKYO,JA,Japan,35.683
JA000047663,2019,2,8.8,34.067,136.2,27.0,OWASE,JA,Japan,34.067
JA000047666,2019,2,10.05,34.6,138.85,56.0,IROZAKI,JA,Japan,34.6
JA000047668,2019,2,8.66,35.05,139.1,68.0,AJIRO,JA,Japan,35.05
JA000047670,2019,2,7.92,35.433,139.65,42.0,YOKOHAMA,JA,Japan,35.433
JA000047672,2019,2,8.19,34.983,139.867,7.0,TATEYAMA,JA,Japan,34.983
JA000047674,2019,2,8.34,35.15,140.317,13.0,KATSUURA,JA,Japan,35.15
JA000047675,2019,2,9.4,34.75,139.383,79.0,OSHIMA,JA,Japan,34.75
JA000047677,2019,2,12.1,34.117,139.517,37.0,MIYAKEJIMA,JA,Japan,34.117
JA000047678,2019,2,12.35,33.117,139.783,80.0,HACHIJOJIMA,JA,Japan,33.117
JA000047682,2019,2,7.7,35.6,140.1,19.0,CHIBA,JA,Japan,35.6
JA000047684,2019,2,6.47,34.933,136.583,56.0,YOKKAICHI,JA,Japan,34.933
JA000047690,2019,2,-1.72,36.733,139.5,1294.0,NIKKO,JA,Japan,36.733
JA000047740,2019,2,6.0,36.2,133.333,31.0,SAIGO,JA,Japan,36.2
JA000047741,2019,2,6.8,35.45,133.067,23.0,MATSUE,JA,Japan,35.45
JA000047742,2019,2,6.89,35.55,133.233,3.0,SAKAI,JA,Japan,35.55
JA000047744,2019,2,6.81,35.433,133.333,9.0,YONAGO,JA,Japan,35.433
JA000047746,2019,2,6.8,35.483,134.233,16.0,TOTTORI,JA,Japan,35.483
JA000047747,2019,2,5.84,35.5,134.783,183.0,TAJIMA,JA,Japan,35.5
JA000047750,2019,2,6.1,35.45,135.333,30.0,MAIZURU_REG_MET_HQ,JA,Japan,35.45
JA000047754,2019,2,8.42,34.683,131.783,57.0,IWAMI_AIRPORT,JA,Japan,34.683
JA000047755,2019,2,7.61,34.9,132.067,20.0,HAMADA,JA,Japan,34.9
JA000047756,2019,2,4.8,35.067,134.017,147.0,TSUYAMA,JA,Japan,35.067
JA000047759,2019,2,6.98,35.017,135.733,46.0,KYOTO,JA,Japan,35.017
JA000047761,2019,2,5.86,35.283,136.25,89.0,HIKONE,JA,Japan,35.283
JA000047762,2019,2,8.73,33.95,130.933,19.0,SHIMONOSEKI,JA,Japan,33.95
JA000047765,2019,2,7.9,34.4,132.467,53.0,HIROSHIMA,JA,Japan,34.4
JA000047767,2019,2,6.4,34.45,133.25,3.0,FUKUYAMA,JA,Japan,34.45
JA000047768,2019,2,6.59,34.667,133.917,18.0,OKAYAMA,JA,Japan,34.667
JA000047769,2019,2,6.4,34.833,134.667,40.0,HIMEJI,JA,Japan,34.833
JA000047770,2019,2,8.06,34.7,135.217,30.0,KOBE,JA,Japan,34.7
JA000047772,2019,2,8.17,34.433,135.25,8.0,KANSAI_INTERNATIONA,JA,Japan,34.433
JA000047776,2019,2,7.0,34.333,134.9,112.0,SUMOTO,JA,Japan,34.333
JA000047777,2019,2,8.18,34.233,135.167,18.0,WAKAYAMA,JA,Japan,34.233
JA000047778,2019,2,10.35,33.45,135.75,76.0,SHIONOMISAKI,JA,Japan,33.45
JA000047780,2019,2,6.35,34.7,135.833,106.0,NARA,JA,Japan,34.7
JA000047784,2019,2,6.78,34.167,131.45,18.0,YAMAGUCHI,JA,Japan,34.167
JA000047800,2019,2,8.05,34.2,129.3,19.0,IZUHARA,JA,Japan,34.2
JA000047805,2019,2,9.09,33.367,129.55,59.0,HIRADO,JA,Japan,33.367
JA000047807,2019,2,9.8,33.583,130.383,15.0,FUKUOKA,JA,Japan,33.583
JA000047809,2019,2,7.46,33.65,130.699,38.0,IIZUKA,JA,Japan,33.65
JA000047813,2019,2,8.82,33.267,130.3,32.0,SAGA,JA,Japan,33.267
JA000047814,2019,2,7.41,33.317,130.933,84.0,HITA,JA,Japan,33.317
JA000047815,2019,2,8.8,33.233,131.617,13.0,OITA,JA,Japan,33.233
JA000047817,2019,2,9.6,32.732,129.866,35.0,NAGASAKI,JA,Japan,32.732
JA000047819,2019,2,8.82,32.817,130.699,39.0,KUMAMOTO,JA,Japan,32.817
JA000047822,2019,2,9.36,32.583,131.65,21.0,NOBEOKA,JA,Japan,32.583
JA000047823,2019,2,9.81,32.033,130.199,45.0,AKUNE,JA,Japan,32.033
JA000047824,2019,2,7.69,32.217,130.75,147.0,HITOYOSHI,JA,Japan,32.217
JA000047827,2019,2,11.6,31.55,130.55,32.0,KAGOSHIMA,JA,Japan,31.55
JA000047829,2019,2,9.46,31.733,131.083,156.0,MIYAKONOJO,JA,Japan,31.733
JA000047830,2019,2,10.85,31.933,131.417,15.0,MIYAZAKI,JA,Japan,31.933
JA000047831,2019,2,11.21,31.267,130.3,31.0,MAKURAZAKI,JA,Japan,31.267
JA000047835,2019,2,11.48,31.583,131.4,15.0,ABURATSU,JA,Japan,31.583
JA000047836,2019,2,13.9,30.383,130.667,38.0,YAKUSHIMA,JA,Japan,30.383
JA000047837,2019,2,13.81,30.733,130.983,18.0,TANEGASHIMA,JA,Japan,30.733
JA000047838,2019,2,10.5,31.717,130.032,14.0,USHIBUKA,JA,Japan,31.717
JA000047843,2019,2,9.45,32.7,128.833,26.0,FUKUE,JA,Japan,32.7
JA000047887,2019,2,8.4,33.85,132.783,34.0,MATSUYAMA,JA,Japan,33.85
JA000047890,2019,2,7.56,34.283,133.75,5.0,TADOTSU,JA,Japan,34.283
JA000047891,2019,2,7.5,34.317,134.05,10.0,TAKAMATSU,JA,Japan,34.317
JA000047892,2019,2,9.01,33.233,132.55,14.0,UWAJIMA,JA,Japan,33.233
JA000047893,2019,2,9.8,33.567,133.55,5.0,KOCHI,JA,Japan,33.567
JA000047895,2019,2,8.35,34.067,134.567,6.0,TOKUSHIMA,JA,Japan,34.067
JA000047897,2019,2,9.51,32.917,132.7,11.0,SUKUMO,JA,Japan,32.917
JA000047898,2019,2,11.32,32.717,133.017,33.0,SHIMIZU,JA,Japan,32.717
JA000047899,2019,2,9.36,33.25,134.183,186.0,MUROTOMISAKI,JA,Japan,33.25
JA000047909,2019,2,17.15,28.383,129.5,8.0,NAZE,JA,Japan,28.383
JA000047927,2019,2,22.15,24.817,125.133,16.0,SHIMOJISHIMA,JA,Japan,24.817
JA000047929,2019,2,19.7,26.333,126.8,5.0,KUMEJIMA,JA,Japan,26.333
JA000047936,2019,2,20.2,26.2,127.683,53.0,NAHA,JA,Japan,26.2
JA000047940,2019,2,19.29,26.6,127.967,7.0,NAGO,JA,Japan,26.6
JA000047942,2019,2,19.31,27.033,128.4,16.0,YORON,JA,Japan,27.033
JA000047945,2019,2,,25.933,131.317,24.0,KITADAITO,JA,Japan,25.933
JA000047991,2019,2,23.15,24.3,153.967,6.1,MINAMI_TORI_SHIMA_MA,JA,Japan,24.3
JAM00047772,2019,2,7.95,34.683,135.517,83.0,OSAKA,JA,Japan,34.683
JAM00047918,2019,2,22.35,24.345,124.187,28.3,ISHIGAKI,JA,Japan,24.345
JAM00047927,2019,2,21.55,24.783,125.295,45.7,MIYAKO,JA,Japan,24.783
JAM00047945,2019,2,20.4,25.847,131.263,50.9,MINAMI_DAITO,JA,Japan,25.847
JAW00042402,2019,2,19.6,27.0833,142.2,8.2,CHICHI_JIMA_BONIN_IS,JA,Japan,27.0833
JA000047401,2019,3,-0.15,45.417,141.683,12.0,WAKKANAI,JA,Japan,45.417
JA000047402,2019,3,-0.74,44.933,142.583,8.0,KITAMIESASHI,JA,Japan,44.933
JA000047404,2019,3,0.79,44.367,141.7,10.0,HABORO,JA,Japan,44.367
JA000047405,2019,3,-1.07,44.583,142.967,15.0,OMU,JA,Japan,44.583
JA000047406,2019,3,1.02,43.95,141.633,28.0,RUMOI,JA,Japan,43.95
JA000047407,2019,3,-0.75,43.767,142.367,116.0,ASAHIKAWA,JA,Japan,43.767
JA000047409,2019,3,-0.65,44.017,144.283,43.0,ABASHIRI,JA,Japan,44.017
JA000047411,2019,3,2.19,43.183,141.017,26.0,OTARU,JA,Japan,43.183
JA000047412,2019,3,2.6,43.067,141.333,26.0,SAPPORO,JA,Japan,43.067
JA000047413,2019,3,0.73,43.217,141.783,51.0,IWAMIZAWA,JA,Japan,43.217
JA000047417,2019,3,1.57,42.917,143.217,43.0,OBIHIRO,JA,Japan,42.917
JA000047418,2019,3,-0.1,42.95,144.433,16.0,KUSHIRO,JA,Japan,42.95
JA000047420,2019,3,-0.4,43.333,145.583,39.0,NEMURO,JA,Japan,43.333
JA000047421,2019,3,2.1,42.8,140.217,38.0,SUTTSU,JA,Japan,42.8
JA000047423,2019,3,2.58,42.317,140.983,49.0,MURORAN,JA,Japan,42.317
JA000047424,2019,3,1.43,42.617,141.55,11.0,TOMAKOMAI,JA,Japan,42.617
JA000047426,2019,3,1.5,42.167,142.783,37.0,URAKAWA,JA,Japan,42.167
JA000047428,2019,3,3.96,41.867,140.117,12.0,ESASHI,JA,Japan,41.867
JA000047430,2019,3,3.15,41.817,140.75,43.0,HAKODATE,JA,Japan,41.817
JA000047433,2019,3,0.33,42.9,140.75,188.0,KUTCHAN,JA,Japan,42.9
JA000047435,2019,3,-0.49,44.35,143.35,16.0,MOMBETSU,JA,Japan,44.35
JA000047440,2019,3,1.35,42.3,143.317,33.0,HIROO,JA,Japan,42.3
JA000047512,2019,3,5.4,39.067,141.717,41.0,OFUNATO,JA,Japan,39.067
JA000047520,2019,3,3.55,38.75,140.317,102.0,SHINJO,JA,Japan,38.75
JA000047570,2019,3,5.75,37.483,139.917,213.0,WAKAMATSU,JA,Japan,37.483
JA000047574,2019,3,4.56,40.65,139.933,67.0,FUKAURA,JA,Japan,40.65
JA000047575,2019,3,4.0,40.817,140.767,3.0,AOMORI,JA,Japan,40.817
JA000047576,2019,3,3.27,41.283,141.217,5.0,MUTSU,JA,Japan,41.283
JA000047581,2019,3,4.02,40.533,141.517,28.0,HACHINOHE,JA,Japan,40.533
JA000047582,2019,3,5.4,39.717,140.1,7.0,AKITA,JA,Japan,39.717
JA000047584,2019,3,4.1,39.7,141.167,155.0,MORIOKA,JA,Japan,39.7
JA000047585,2019,3,4.84,39.65,141.967,46.0,MIYAKO,JA,Japan,39.65
JA000047587,2019,3,7.0,38.8,139.783,26.0,SHONAI,JA,Japan,38.8
JA000047588,2019,3,5.59,38.25,140.35,153.0,YAMAGATA,JA,Japan,38.25
JA000047590,2019,3,7.25,38.267,140.9,43.0,SENDAI,JA,Japan,38.267
JA000047592,2019,3,5.78,38.433,141.3,43.0,ISHINOMAKI,JA,Japan,38.433
JA000047597,2019,3,5.94,37.133,140.217,357.0,SHIRAKAWA,JA,Japan,37.133
JA000047598,2019,3,8.55,36.95,140.9,5.0,ONAHAMA,JA,Japan,36.95
JA000047600,2019,3,7.05,37.4,136.9,15.0,WAJIMA,JA,Japan,37.4
JA000047602,2019,3,7.93,38.033,138.233,17.0,AIKAWA,JA,Japan,38.033
JA000047604,2019,3,7.5,37.917,139.05,6.0,NIIGATA,JA,Japan,37.917
JA000047605,2019,3,8.65,36.583,136.633,33.0,KANAZAWA,JA,Japan,36.583
JA000047606,2019,3,7.74,36.8,137.05,13.0,FUSHIKI,JA,Japan,36.8
JA000047607,2019,3,8.21,36.717,137.2,17.0,TOYAMA,JA,Japan,36.717
JA000047610,2019,3,6.05,36.667,138.2,419.0,NAGANO,JA,Japan,36.667
JA000047612,2019,3,7.34,37.1,138.25,18.0,TAKADA,JA,Japan,37.1
JA000047615,2019,3,8.71,36.55,139.867,140.0,UTSUNOMIYA,JA,Japan,36.55
JA000047616,2019,3,8.44,36.05,136.217,17.0,FUKUI,JA,Japan,36.05
JA000047617,2019,3,4.46,36.15,137.25,561.0,TAKAYAMA,JA,Japan,36.15
JA000047618,2019,3,5.53,36.25,137.967,611.0,MATSUMOTO,JA,Japan,36.25
JA000047620,2019,3,4.67,36.05,138.117,762.0,SUWA,JA,Japan,36.05
JA000047622,2019,3,2.01,36.35,138.55,1004.0,KARUIZAWA,JA,Japan,36.35
JA000047624,2019,3,9.45,36.4,139.067,113.0,MAEBASHI,JA,Japan,36.4
JA000047626,2019,3,9.79,36.15,139.383,31.0,KUMAGAYA,JA,Japan,36.15
JA000047629,2019,3,8.6,36.383,140.467,31.0,MITO,JA,Japan,36.383
JA000047631,2019,3,9.16,35.65,136.067,12.0,TSURUGA,JA,Japan,35.65
JA000047632,2019,3,9.98,35.4,136.767,17.0,GIFU,JA,Japan,35.4
JA000047636,2019,3,10.6,35.167,136.967,56.0,NAGOYA,JA,Japan,35.167
JA000047637,2019,3,6.53,35.517,137.817,529.0,IIDA,JA,Japan,35.517
JA000047638,2019,3,9.72,35.667,138.55,281.0,KOFU,JA,Japan,35.667
JA000047640,2019,3,5.43,35.5,138.767,861.0,KAWAGUCHIKO,JA,Japan,35.5
JA000047641,2019,3,7.77,35.983,139.067,234.0,CHICHIBU,JA,Japan,35.983
JA000047648,2019,3,11.05,35.733,140.85,28.0,CHOSHI,JA,Japan,35.733
JA000047649,2019,3,8.28,34.767,136.15,161.0,UENO,JA,Japan,34.767
JA000047651,2019,3,10.0,34.733,136.517,18.0,TSU,JA,Japan,34.733
JA000047653,2019,3,10.38,34.633,137.1,8.0,IRAKO,JA,Japan,34.633
JA000047654,2019,3,11.19,34.717,137.717,33.0,HAMAMATSU,JA,Japan,34.717
JA000047655,2019,3,11.55,34.6,138.217,47.0,OMAEZAKI,JA,Japan,34.6
JA000047656,2019,3,11.94,34.983,138.4,15.0,SHIZUOKA,JA,Japan,34.983
JA000047657,2019,3,11.2,35.117,138.933,22.0,MISHIMA,JA,Japan,35.117
JA000047662,2019,3,10.8,35.683,139.767,36.0,TOKYO,JA,Japan,35.683
JA000047663,2019,3,11.41,34.067,136.2,27.0,OWASE,JA,Japan,34.067
JA000047666,2019,3,12.07,34.6,138.85,56.0,IROZAKI,JA,Japan,34.6
JA000047668,2019,3,11.23,35.05,139.1,68.0,AJIRO,JA,Japan,35.05
JA000047670,2019,3,11.15,35.433,139.65,42.0,YOKOHAMA,JA,Japan,35.433
JA000047672,2019,3,11.38,34.983,139.867,7.0,TATEYAMA,JA,Japan,34.983
JA000047674,2019,3,11.32,35.15,140.317,13.0,KATSUURA,JA,Japan,35.15
JA000047675,2019,3,11.65,34.75,139.383,79.0,OSHIMA,JA,Japan,34.75
JA000047677,2019,3,13.44,34.117,139.517,37.0,MIYAKEJIMA,JA,Japan,34.117
JA000047678,2019,3,13.5,33.117,139.783,80.0,HACHIJOJIMA,JA,Japan,33.117
JA000047682,2019,3,11.08,35.6,140.1,19.0,CHIBA,JA,Japan,35.6
JA000047684,2019,3,9.2,34.933,136.583,56.0,YOKKAICHI,JA,Japan,34.933
JA000047690,2019,3,0.68,36.733,139.5,1294.0,NIKKO,JA,Japan,36.733
JA000047740,2019,3,8.55,36.2,133.333,31.0,SAIGO,JA,Japan,36.2
JA000047741,2019,3,9.3,35.45,133.067,23.0,MATSUE,JA,Japan,35.45
JA000047742,2019,3,9.1,35.55,133.233,3.0,SAKAI,JA,Japan,35.55
JA000047744,2019,3,9.12,35.433,133.333,9.0,YONAGO,JA,Japan,35.433
JA000047746,2019,3,9.15,35.483,134.233,16.0,TOTTORI,JA,Japan,35.483
JA000047747,2019,3,9.27,35.5,134.783,183.0,TAJIMA,JA,Japan,35.5
JA000047750,2019,3,8.4,35.45,135.333,30.0,MAIZURU_REG_MET_HQ,JA,Japan,35.45
JA000047754,2019,3,11.28,34.683,131.783,57.0,IWAMI_AIRPORT,JA,Japan,34.683
JA000047755,2019,3,10.1,34.9,132.067,20.0,HAMADA,JA,Japan,34.9
JA000047756,2019,3,7.58,35.067,134.017,147.0,TSUYAMA,JA,Japan,35.067
JA000047759,2019,3,9.71,35.017,135.733,46.0,KYOTO,JA,Japan,35.017
JA000047761,2019,3,8.25,35.283,136.25,89.0,HIKONE,JA,Japan,35.283
JA000047762,2019,3,11.29,33.95,130.933,19.0,SHIMONOSEKI,JA,Japan,33.95
JA000047765,2019,3,10.9,34.4,132.467,53.0,HIROSHIMA,JA,Japan,34.4
JA000047767,2019,3,9.25,34.45,133.25,3.0,FUKUYAMA,JA,Japan,34.45
JA000047768,2019,3,9.54,34.667,133.917,18.0,OKAYAMA,JA,Japan,34.667
JA000047769,2019,3,9.21,34.833,134.667,40.0,HIMEJI,JA,Japan,34.833
JA000047770,2019,3,10.81,34.7,135.217,30.0,KOBE,JA,Japan,34.7
JA000047772,2019,3,10.77,34.433,135.25,8.0,KANSAI_INTERNATIONA,JA,Japan,34.433
JA000047776,2019,3,9.93,34.333,134.9,112.0,SUMOTO,JA,Japan,34.333
JA000047777,2019,3,10.87,34.233,135.167,18.0,WAKAYAMA,JA,Japan,34.233
JA000047778,2019,3,11.95,33.45,135.75,76.0,SHIONOMISAKI,JA,Japan,33.45
JA000047780,2019,3,9.24,34.7,135.833,106.0,NARA,JA,Japan,34.7
JA000047784,2019,3,9.83,34.167,131.45,18.0,YAMAGUCHI,JA,Japan,34.167
JA000047800,2019,3,10.95,34.2,129.3,19.0,IZUHARA,JA,Japan,34.2
JA000047805,2019,3,11.2,33.367,129.55,59.0,HIRADO,JA,Japan,33.367
JA000047807,2019,3,12.2,33.583,130.383,15.0,FUKUOKA,JA,Japan,33.583
JA000047809,2019,3,10.42,33.65,130.699,38.0,IIZUKA,JA,Japan,33.65
JA000047813,2019,3,11.56,33.267,130.3,32.0,SAGA,JA,Japan,33.267
JA000047814,2019,3,10.38,33.317,130.933,84.0,HITA,JA,Japan,33.317
JA000047815,2019,3,11.55,33.233,131.617,13.0,OITA,JA,Japan,33.233
JA000047817,2019,3,11.95,32.732,129.866,35.0,NAGASAKI,JA,Japan,32.732
JA000047819,2019,3,11.57,32.817,130.699,39.0,KUMAMOTO,JA,Japan,32.817
JA000047822,2019,3,11.88,32.583,131.65,21.0,NOBEOKA,JA,Japan,32.583
JA000047823,2019,3,12.35,32.033,130.199,45.0,AKUNE,JA,Japan,32.033
JA000047824,2019,3,10.51,32.217,130.75,147.0,HITOYOSHI,JA,Japan,32.217
JA000047827,2019,3,14.0,31.55,130.55,32.0,KAGOSHIMA,JA,Japan,31.55
JA000047829,2019,3,11.75,31.733,131.083,156.0,MIYAKONOJO,JA,Japan,31.733
JA000047830,2019,3,13.15,31.933,131.417,15.0,MIYAZAKI,JA,Japan,31.933
JA000047831,2019,3,13.39,31.267,130.3,31.0,MAKURAZAKI,JA,Japan,31.267
JA000047835,2019,3,13.47,31.583,131.4,15.0,ABURATSU,JA,Japan,31.583
JA000047836,2019,3,15.39,30.383,130.667,38.0,YAKUSHIMA,JA,Japan,30.383
JA000047837,2019,3,15.17,30.733,130.983,18.0,TANEGASHIMA,JA,Japan,30.733
JA000047838,2019,3,12.96,31.717,130.032,14.0,USHIBUKA,JA,Japan,31.717
JA000047843,2019,3,11.45,32.7,128.833,26.0,FUKUE,JA,Japan,32.7
JA000047887,2019,3,11.0,33.85,132.783,34.0,MATSUYAMA,JA,Japan,33.85
JA000047890,2019,3,10.23,34.283,133.75,5.0,TADOTSU,JA,Japan,34.283
JA000047891,2019,3,10.1,34.317,134.05,10.0,TAKAMATSU,JA,Japan,34.317
JA000047892,2019,3,11.68,33.233,132.55,14.0,UWAJIMA,JA,Japan,33.233
JA000047893,2019,3,11.95,33.567,133.55,5.0,KOCHI,JA,Japan,33.567
JA000047895,2019,3,10.95,34.067,134.567,6.0,TOKUSHIMA,JA,Japan,34.067
JA000047897,2019,3,12.03,32.917,132.7,11.0,SUKUMO,JA,Japan,32.917
JA000047898,2019,3,13.35,32.717,133.017,33.0,SHIMIZU,JA,Japan,32.717
JA000047899,2019,3,11.73,33.25,134.183,186.0,MUROTOMISAKI,JA,Japan,33.25
JA000047909,2019,3,18.0,28.383,129.5,8.0,NAZE,JA,Japan,28.383
JA000047927,2019,3,21.87,24.817,125.133,16.0,SHIMOJISHIMA,JA,Japan,24.817
JA000047929,2019,3,19.81,26.333,126.8,5.0,KUMEJIMA,JA,Japan,26.333
JA000047936,2019,3,19.95,26.2,127.683,53.0,NAHA,JA,Japan,26.2
JA000047940,2019,3,19.51,26.6,127.967,7.0,NAGO,JA,Japan,26.6
JA000047942,2019,3,19.33,27.033,128.4,16.0,YORON,JA,Japan,27.033
JA000047945,2019,3,,25.933,131.317,24.0,KITADAITO,JA,Japan,25.933
JA000047991,2019,3,24.1,24.3,153.967,6.1,MINAMI_TORI_SHIMA_MA,JA,Japan,24.3
JAM00047772,2019,3,10.8,34.683,135.517,83.0,OSAKA,JA,Japan,34.683
JAM00047918,2019,3,22.1,24.345,124.187,28.3,ISHIGAKI,JA,Japan,24.345
JAM00047927,2019,3,21.2,24.783,125.295,45.7,MIYAKO,JA,Japan,24.783
JAM00047945,2019,3,20.3,25.847,131.263,50.9,MINAMI_DAITO,JA,Japan,25.847
JAW00042402,2019,3,19.6,27.0833,142.2,8.2,CHICHI_JIMA_BONIN_IS,JA,Japan,27.0833
JA000047401,2019,4,5.45,45.417,141.683,12.0,WAKKANAI,JA,Japan,45.417
JA000047402,2019,4,5.45,44.933,142.583,8.0,KITAMIESASHI,JA,Japan,44.933
JA000047404,2019,4,5.56,44.367,141.7,10.0,HABORO,JA,Japan,44.367
JA000047405,2019,4,5.1,44.583,142.967,15.0,OMU,JA,Japan,44.583
JA000047406,2019,4,5.61,43.95,141.633,28.0,RUMOI,JA,Japan,43.95
JA000047407,2019,4,5.4,43.767,142.367,116.0,ASAHIKAWA,JA,Japan,43.767
JA000047409,2019,4,5.2,44.017,144.283,43.0,ABASHIRI,JA,Japan,44.017
JA000047411,2019,4,7.29,43.183,141.017,26.0,OTARU,JA,Japan,43.183
JA000047412,2019,4,8.4,43.067,141.333,26.0,SAPPORO,JA,Japan,43.067
JA000047413,2019,4,6.54,43.217,141.783,51.0,IWAMIZAWA,JA,Japan,43.217
JA000047417,2019,4,6.96,42.917,143.217,43.0,OBIHIRO,JA,Japan,42.917
JA000047418,2019,4,4.6,42.95,144.433,16.0,KUSHIRO,JA,Japan,42.95
JA000047420,2019,4,4.7,43.333,145.583,39.0,NEMURO,JA,Japan,43.333
JA000047421,2019,4,7.05,42.8,140.217,38.0,SUTTSU,JA,Japan,42.8
JA000047423,2019,4,6.79,42.317,140.983,49.0,MURORAN,JA,Japan,42.317
JA000047424,2019,4,5.48,42.617,141.55,11.0,TOMAKOMAI,JA,Japan,42.617
JA000047426,2019,4,5.4,42.167,142.783,37.0,URAKAWA,JA,Japan,42.167
JA000047428,2019,4,7.89,41.867,140.117,12.0,ESASHI,JA,Japan,41.867
JA000047430,2019,4,7.65,41.817,140.75,43.0,HAKODATE,JA,Japan,41.817
JA000047433,2019,4,5.3,42.9,140.75,188.0,KUTCHAN,JA,Japan,42.9
JA000047435,2019,4,5.57,44.35,143.35,16.0,MOMBETSU,JA,Japan,44.35
JA000047440,2019,4,5.77,42.3,143.317,33.0,HIROO,JA,Japan,42.3
JA000047512,2019,4,8.98,39.067,141.717,41.0,OFUNATO,JA,Japan,39.067
JA000047520,2019,4,8.17,38.75,140.317,102.0,SHINJO,JA,Japan,38.75
JA000047570,2019,4,9.85,37.483,139.917,213.0,WAKAMATSU,JA,Japan,37.483
JA000047574,2019,4,8.57,40.65,139.933,67.0,FUKAURA,JA,Japan,40.65
JA000047575,2019,4,8.85,40.817,140.767,3.0,AOMORI,JA,Japan,40.817
JA000047576,2019,4,7.86,41.283,141.217,5.0,MUTSU,JA,Japan,41.283
JA000047581,2019,4,8.79,40.533,141.517,28.0,HACHINOHE,JA,Japan,40.533
JA000047582,2019,4,9.25,39.717,140.1,7.0,AKITA,JA,Japan,39.717
JA000047584,2019,4,8.1,39.7,141.167,155.0,MORIOKA,JA,Japan,39.7
JA000047585,2019,4,8.73,39.65,141.967,46.0,MIYAKO,JA,Japan,39.65
JA000047587,2019,4,10.46,38.8,139.783,26.0,SHONAI,JA,Japan,38.8
JA000047588,2019,4,9.59,38.25,140.35,153.0,YAMAGATA,JA,Japan,38.25
JA000047590,2019,4,10.5,38.267,140.9,43.0,SENDAI,JA,Japan,38.267
JA000047592,2019,4,8.91,38.433,141.3,43.0,ISHINOMAKI,JA,Japan,38.433
JA000047597,2019,4,9.6,37.133,140.217,357.0,SHIRAKAWA,JA,Japan,37.133
JA000047598,2019,4,10.92,36.95,140.9,5.0,ONAHAMA,JA,Japan,36.95
JA000047600,2019,4,10.05,37.4,136.9,15.0,WAJIMA,JA,Japan,37.4
JA000047602,2019,4,10.68,38.033,138.233,17.0,AIKAWA,JA,Japan,38.033
JA000047604,2019,4,10.95,37.917,139.05,6.0,NIIGATA,JA,Japan,37.917
JA000047605,2019,4,12.0,36.583,136.633,33.0,KANAZAWA,JA,Japan,36.583
JA000047606,2019,4,10.83,36.8,137.05,13.0,FUSHIKI,JA,Japan,36.8
JA000047607,2019,4,11.43,36.717,137.2,17.0,TOYAMA,JA,Japan,36.717
JA000047610,2019,4,10.1,36.667,138.2,419.0,NAGANO,JA,Japan,36.667
JA000047612,2019,4,10.81,37.1,138.25,18.0,TAKADA,JA,Japan,37.1
JA000047615,2019,4,12.28,36.55,139.867,140.0,UTSUNOMIYA,JA,Japan,36.55
JA000047616,2019,4,12.07,36.05,136.217,17.0,FUKUI,JA,Japan,36.05
JA000047617,2019,4,9.14,36.15,137.25,561.0,TAKAYAMA,JA,Japan,36.15
JA000047618,2019,4,10.1,36.25,137.967,611.0,MATSUMOTO,JA,Japan,36.25
JA000047620,2019,4,9.19,36.05,138.117,762.0,SUWA,JA,Japan,36.05
JA000047622,2019,4,6.04,36.35,138.55,1004.0,KARUIZAWA,JA,Japan,36.35
JA000047624,2019,4,13.15,36.4,139.067,113.0,MAEBASHI,JA,Japan,36.4
JA000047626,2019,4,13.46,36.15,139.383,31.0,KUMAGAYA,JA,Japan,36.15
JA000047629,2019,4,11.9,36.383,140.467,31.0,MITO,JA,Japan,36.383
JA000047631,2019,4,12.85,35.65,136.067,12.0,TSURUGA,JA,Japan,35.65
JA000047632,2019,4,14.01,35.4,136.767,17.0,GIFU,JA,Japan,35.4
JA000047636,2019,4,14.5,35.167,136.967,56.0,NAGOYA,JA,Japan,35.167
JA000047637,2019,4,11.13,35.517,137.817,529.0,IIDA,JA,Japan,35.517
JA000047638,2019,4,13.68,35.667,138.55,281.0,KOFU,JA,Japan,35.667
JA000047640,2019,4,8.8,35.5,138.767,861.0,KAWAGUCHIKO,JA,Japan,35.5
JA000047641,2019,4,11.91,35.983,139.067,234.0,CHICHIBU,JA,Japan,35.983
JA000047648,2019,4,13.05,35.733,140.85,28.0,CHOSHI,JA,Japan,35.733
JA000047649,2019,4,12.31,34.767,136.15,161.0,UENO,JA,Japan,34.767
JA000047651,2019,4,13.85,34.733,136.517,18.0,TSU,JA,Japan,34.733
JA000047653,2019,4,14.17,34.633,137.1,8.0,IRAKO,JA,Japan,34.633
JA000047654,2019,4,14.95,34.717,137.717,33.0,HAMAMATSU,JA,Japan,34.717
JA000047655,2019,4,14.5,34.6,138.217,47.0,OMAEZAKI,JA,Japan,34.6
JA000047656,2019,4,14.78,34.983,138.4,15.0,SHIZUOKA,JA,Japan,34.983
JA000047657,2019,4,14.08,35.117,138.933,22.0,MISHIMA,JA,Japan,35.117
JA000047662,2019,4,14.1,35.683,139.767,36.0,TOKYO,JA,Japan,35.683
JA000047663,2019,4,14.37,34.067,136.2,27.0,OWASE,JA,Japan,34.067
JA000047666,2019,4,14.51,34.6,138.85,56.0,IROZAKI,JA,Japan,34.6
JA000047668,2019,4,13.48,35.05,139.1,68.0,AJIRO,JA,Japan,35.05
JA000047670,2019,4,13.99,35.433,139.65,42.0,YOKOHAMA,JA,Japan,35.433
JA000047672,2019,4,13.75,34.983,139.867,7.0,TATEYAMA,JA,Japan,34.983
JA000047674,2019,4,13.53,35.15,140.317,13.0,KATSUURA,JA,Japan,35.15
JA000047675,2019,4,14.15,34.75,139.383,79.0,OSHIMA,JA,Japan,34.75
JA000047677,2019,4,15.48,34.117,139.517,37.0,MIYAKEJIMA,JA,Japan,34.117
JA000047678,2019,4,15.3,33.117,139.783,80.0,HACHIJOJIMA,JA,Japan,33.117
JA000047682,2019,4,13.84,35.6,140.1,19.0,CHIBA,JA,Japan,35.6
JA000047684,2019,4,13.09,34.933,136.583,56.0,YOKKAICHI,JA,Japan,34.933
JA000047690,2019,4,4.11,36.733,139.5,1294.0,NIKKO,JA,Japan,36.733
JA000047740,2019,4,10.85,36.2,133.333,31.0,SAIGO,JA,Japan,36.2
JA000047741,2019,4,12.5,35.45,133.067,23.0,MATSUE,JA,Japan,35.45
JA000047742,2019,4,12.73,35.55,133.233,3.0,SAKAI,JA,Japan,35.55
JA000047744,2019,4,12.67,35.433,133.333,9.0,YONAGO,JA,Japan,35.433
JA000047746,2019,4,12.45,35.483,134.233,16.0,TOTTORI,JA,Japan,35.483
JA000047747,2019,4,13.27,35.5,134.783,183.0,TAJIMA,JA,Japan,35.5
JA000047750,2019,4,11.9,35.45,135.333,30.0,MAIZURU_REG_MET_HQ,JA,Japan,35.45
JA000047754,2019,4,14.9,34.683,131.783,57.0,IWAMI_AIRPORT,JA,Japan,34.683
JA000047755,2019,4,13.27,34.9,132.067,20.0,HAMADA,JA,Japan,34.9
JA000047756,2019,4,11.88,35.067,134.017,147.0,TSUYAMA,JA,Japan,35.067
JA000047759,2019,4,13.94,35.017,135.733,46.0,KYOTO,JA,Japan,35.017
JA000047761,2019,4,11.99,35.283,136.25,89.0,HIKONE,JA,Japan,35.283
JA000047762,2019,4,14.75,33.95,130.933,19.0,SHIMONOSEKI,JA,Japan,33.95
JA000047765,2019,4,15.05,34.4,132.467,53.0,HIROSHIMA,JA,Japan,34.4
JA000047767,2019,4,13.6,34.45,133.25,3.0,FUKUYAMA,JA,Japan,34.45
JA000047768,2019,4,13.89,34.667,133.917,18.0,OKAYAMA,JA,Japan,34.667
JA000047769,2019,4,13.01,34.833,134.667,40.0,HIMEJI,JA,Japan,34.833
JA000047770,2019,4,14.58,34.7,135.217,30.0,KOBE,JA,Japan,34.7
JA000047772,2019,4,14.2,34.433,135.25,8.0,KANSAI_INTERNATIONA,JA,Japan,34.433
JA000047776,2019,4,13.86,34.333,134.9,112.0,SUMOTO,JA,Japan,34.333
JA000047777,2019,4,14.77,34.233,135.167,18.0,WAKAYAMA,JA,Japan,34.233
JA000047778,2019,4,15.1,33.45,135.75,76.0,SHIONOMISAKI,JA,Japan,33.45
JA000047780,2019,4,13.6,34.7,135.833,106.0,NARA,JA,Japan,34.7
JA000047784,2019,4,14.29,34.167,131.45,18.0,YAMAGUCHI,JA,Japan,34.167
JA000047800,2019,4,14.2,34.2,129.3,19.0,IZUHARA,JA,Japan,34.2
JA000047805,2019,4,14.25,33.367,129.55,59.0,HIRADO,JA,Japan,33.367
JA000047807,2019,4,15.85,33.583,130.383,15.0,FUKUOKA,JA,Japan,33.583
JA000047809,2019,4,14.34,33.65,130.699,38.0,IIZUKA,JA,Japan,33.65
JA000047813,2019,4,15.62,33.267,130.3,32.0,SAGA,JA,Japan,33.267
JA000047814,2019,4,14.82,33.317,130.933,84.0,HITA,JA,Japan,33.317
JA000047815,2019,4,14.9,33.233,131.617,13.0,OITA,JA,Japan,33.233
JA000047817,2019,4,16.05,32.732,129.866,35.0,NAGASAKI,JA,Japan,32.732
JA000047819,2019,4,16.04,32.817,130.699,39.0,KUMAMOTO,JA,Japan,32.817
JA000047822,2019,4,15.52,32.583,131.65,21.0,NOBEOKA,JA,Japan,32.583
JA000047823,2019,4,15.93,32.033,130.199,45.0,AKUNE,JA,Japan,32.033
JA000047824,2019,4,14.92,32.217,130.75,147.0,HITOYOSHI,JA,Japan,32.217
JA000047827,2019,4,18.0,31.55,130.55,32.0,KAGOSHIMA,JA,Japan,31.55
JA000047829,2019,4,15.95,31.733,131.083,156.0,MIYAKONOJO,JA,Japan,31.733
JA000047830,2019,4,16.45,31.933,131.417,15.0,MIYAZAKI,JA,Japan,31.933
JA000047831,2019,4,16.8,31.267,130.3,31.0,MAKURAZAKI,JA,Japan,31.267
JA000047835,2019,4,16.98,31.583,131.4,15.0,ABURATSU,JA,Japan,31.583
JA000047836,2019,4,17.95,30.383,130.667,38.0,YAKUSHIMA,JA,Japan,30.383
JA000047837,2019,4,18.18,30.733,130.983,18.0,TANEGASHIMA,JA,Japan,30.733
JA000047838,2019,4,16.62,31.717,130.032,14.0,USHIBUKA,JA,Japan,31.717
JA000047843,2019,4,14.75,32.7,128.833,26.0,FUKUE,JA,Japan,32.7
JA000047887,2019,4,15.05,33.85,132.783,34.0,MATSUYAMA,JA,Japan,33.85
JA000047890,2019,4,14.32,34.283,133.75,5.0,TADOTSU,JA,Japan,34.283
JA000047891,2019,4,14.7,34.317,134.05,10.0,TAKAMATSU,JA,Japan,34.317
JA000047892,2019,4,15.46,33.233,132.55,14.0,UWAJIMA,JA,Japan,33.233
JA000047893,2019,4,15.7,33.567,133.55,5.0,KOCHI,JA,Japan,33.567
JA000047895,2019,4,14.75,34.067,134.567,6.0,TOKUSHIMA,JA,Japan,34.067
JA000047897,2019,4,15.89,32.917,132.7,11.0,SUKUMO,JA,Japan,32.917
JA000047898,2019,4,16.71,32.717,133.017,33.0,SHIMIZU,JA,Japan,32.717
JA000047899,2019,4,14.51,33.25,134.183,186.0,MUROTOMISAKI,JA,Japan,33.25
JA000047909,2019,4,20.25,28.383,129.5,8.0,NAZE,JA,Japan,28.383
JA000047927,2019,4,24.68,24.817,125.133,16.0,SHIMOJISHIMA,JA,Japan,24.817
JA000047929,2019,4,22.43,26.333,126.8,5.0,KUMEJIMA,JA,Japan,26.333
JA000047936,2019,4,22.55,26.2,127.683,53.0,NAHA,JA,Japan,26.2
JA000047940,2019,4,21.95,26.6,127.967,7.0,NAGO,JA,Japan,26.6
JA000047942,2019,4,21.56,27.033,128.4,16.0,YORON,JA,Japan,27.033
JA000047945,2019,4,22.53,25.933,131.317,24.0,KITADAITO,JA,Japan,25.933
JA000047991,2019,4,24.7,24.3,153.967,6.1,MINAMI_TORI_SHIMA_MA,JA,Japan,24.3
JAM00047772,2019,4,15.0,34.683,135.517,83.0,OSAKA,JA,Japan,34.683
JAM00047918,2019,4,25.0,24.345,124.187,28.3,ISHIGAKI,JA,Japan,24.345
JAM00047927,2019,4,23.9,24.783,125.295,45.7,MIYAKO,JA,Japan,24.783
JAM00047945,2019,4,22.15,25.847,131.263,50.9,MINAMI_DAITO,JA,Japan,25.847
JAW00042402,2019,4,20.55,27.0833,142.2,8.2,CHICHI_JIMA_BONIN_IS,JA,Japan,27.0833
JA000047401,2019,5,13.05,45.417,141.683,12.0,WAKKANAI,JA,Japan,45.417
JA000047402,2019,5,13.2,44.933,142.583,8.0,KITAMIESASHI,JA,Japan,44.933
JA000047404,2019,5,13.6,44.367,141.7,10.0,HABORO,JA,Japan,44.367
JA000047405,2019,5,12.76,44.583,142.967,15.0,OMU,JA,Japan,44.583
JA000047406,2019,5,13.34,43.95,141.633,28.0,RUMOI,JA,Japan,43.95
JA000047407,2019,5,14.7,43.767,142.367,116.0,ASAHIKAWA,JA,Japan,43.767
JA000047409,2019,5,13.8,44.017,144.283,43.0,ABASHIRI,JA,Japan,44.017
JA000047411,2019,5,14.48,43.183,141.017,26.0,OTARU,JA,Japan,43.183
JA000047412,2019,5,16.3,43.067,141.333,26.0,SAPPORO,JA,Japan,43.067
JA000047413,2019,5,14.48,43.217,141.783,51.0,IWAMIZAWA,JA,Japan,43.217
JA000047417,2019,5,14.72,42.917,143.217,43.0,OBIHIRO,JA,Japan,42.917
JA000047418,2019,5,10.8,42.95,144.433,16.0,KUSHIRO,JA,Japan,42.95
JA000047420,2019,5,11.45,43.333,145.583,39.0,NEMURO,JA,Japan,43.333
JA000047421,2019,5,14.05,42.8,140.217,38.0,SUTTSU,JA,Japan,42.8
JA000047423,2019,5,12.95,42.317,140.983,49.0,MURORAN,JA,Japan,42.317
JA000047424,2019,5,11.43,42.617,141.55,11.0,TOMAKOMAI,JA,Japan,42.617
JA000047426,2019,5,11.65,42.167,142.783,37.0,URAKAWA,JA,Japan,42.167
JA000047428,2019,5,13.96,41.867,140.117,12.0,ESASHI,JA,Japan,41.867
JA000047430,2019,5,14.55,41.817,140.75,43.0,HAKODATE,JA,Japan,41.817
JA000047433,2019,5,13.47,42.9,140.75,188.0,KUTCHAN,JA,Japan,42.9
JA000047435,2019,5,13.5,44.35,143.35,16.0,MOMBETSU,JA,Japan,44.35
JA000047440,2019,5,12.74,42.3,143.317,33.0,HIROO,JA,Japan,42.3
JA000047512,2019,5,15.93,39.067,141.717,41.0,OFUNATO,JA,Japan,39.067
JA000047520,2019,5,16.1,38.75,140.317,102.0,SHINJO,JA,Japan,38.75
JA000047570,2019,5,17.65,37.483,139.917,213.0,WAKAMATSU,JA,Japan,37.483
JA000047574,2019,5,15.25,40.65,139.933,67.0,FUKAURA,JA,Japan,40.65
JA000047575,2019,5,16.25,40.817,140.767,3.0,AOMORI,JA,Japan,40.817
JA000047576,2019,5,14.66,41.283,141.217,5.0,MUTSU,JA,Japan,41.283
JA000047581,2019,5,15.92,40.533,141.517,28.0,HACHINOHE,JA,Japan,40.533
JA000047582,2019,5,17.0,39.717,140.1,7.0,AKITA,JA,Japan,39.717
JA000047584,2019,5,16.5,39.7,141.167,155.0,MORIOKA,JA,Japan,39.7
JA000047585,2019,5,15.46,39.65,141.967,46.0,MIYAKO,JA,Japan,39.65
JA000047587,2019,5,18.19,38.8,139.783,26.0,SHONAI,JA,Japan,38.8
JA000047588,2019,5,17.65,38.25,140.35,153.0,YAMAGATA,JA,Japan,38.25
JA000047590,2019,5,17.7,38.267,140.9,43.0,SENDAI,JA,Japan,38.267
JA000047592,2019,5,16.02,38.433,141.3,43.0,ISHINOMAKI,JA,Japan,38.433
JA000047597,2019,5,16.81,37.133,140.217,357.0,SHIRAKAWA,JA,Japan,37.133
JA000047598,2019,5,16.78,36.95,140.9,5.0,ONAHAMA,JA,Japan,36.95
JA000047600,2019,5,17.25,37.4,136.9,15.0,WAJIMA,JA,Japan,37.4
JA000047602,2019,5,17.26,38.033,138.233,17.0,AIKAWA,JA,Japan,38.033
JA000047604,2019,5,18.35,37.917,139.05,6.0,NIIGATA,JA,Japan,37.917
JA000047605,2019,5,19.4,36.583,136.633,33.0,KANAZAWA,JA,Japan,36.583
JA000047606,2019,5,18.08,36.8,137.05,13.0,FUSHIKI,JA,Japan,36.8
JA000047607,2019,5,18.94,36.717,137.2,17.0,TOYAMA,JA,Japan,36.717
JA000047610,2019,5,17.75,36.667,138.2,419.0,NAGANO,JA,Japan,36.667
JA000047612,2019,5,17.8,37.1,138.25,18.0,TAKADA,JA,Japan,37.1
JA000047615,2019,5,19.31,36.55,139.867,140.0,UTSUNOMIYA,JA,Japan,36.55
JA000047616,2019,5,19.25,36.05,136.217,17.0,FUKUI,JA,Japan,36.05
JA000047617,2019,5,16.15,36.15,137.25,561.0,TAKAYAMA,JA,Japan,36.15
JA000047618,2019,5,17.25,36.25,137.967,611.0,MATSUMOTO,JA,Japan,36.25
JA000047620,2019,5,15.78,36.05,138.117,762.0,SUWA,JA,Japan,36.05
JA000047622,2019,5,12.8,36.35,138.55,1004.0,KARUIZAWA,JA,Japan,36.35
JA000047624,2019,5,20.45,36.4,139.067,113.0,MAEBASHI,JA,Japan,36.4
JA000047626,2019,5,20.31,36.15,139.383,31.0,KUMAGAYA,JA,Japan,36.15
JA000047629,2019,5,18.45,36.383,140.467,31.0,MITO,JA,Japan,36.383
JA000047631,2019,5,19.14,35.65,136.067,12.0,TSURUGA,JA,Japan,35.65
JA000047632,2019,5,20.52,35.4,136.767,17.0,GIFU,JA,Japan,35.4
JA000047636,2019,5,20.8,35.167,136.967,56.0,NAGOYA,JA,Japan,35.167
JA000047637,2019,5,16.88,35.517,137.817,529.0,IIDA,JA,Japan,35.517
JA000047638,2019,5,19.32,35.667,138.55,281.0,KOFU,JA,Japan,35.667
JA000047640,2019,5,14.36,35.5,138.767,861.0,KAWAGUCHIKO,JA,Japan,35.5
JA000047641,2019,5,18.39,35.983,139.067,234.0,CHICHIBU,JA,Japan,35.983
JA000047648,2019,5,18.75,35.733,140.85,28.0,CHOSHI,JA,Japan,35.733
JA000047649,2019,5,18.46,34.767,136.15,161.0,UENO,JA,Japan,34.767
JA000047651,2019,5,19.8,34.733,136.517,18.0,TSU,JA,Japan,34.733
JA000047653,2019,5,19.47,34.633,137.1,8.0,IRAKO,JA,Japan,34.633
JA000047654,2019,5,19.89,34.717,137.717,33.0,HAMAMATSU,JA,Japan,34.717
JA000047655,2019,5,19.7,34.6,138.217,47.0,OMAEZAKI,JA,Japan,34.6
JA000047656,2019,5,19.8,34.983,138.4,15.0,SHIZUOKA,JA,Japan,34.983
JA000047657,2019,5,19.48,35.117,138.933,22.0,MISHIMA,JA,Japan,35.117
JA000047662,2019,5,20.3,35.683,139.767,36.0,TOKYO,JA,Japan,35.683
JA000047663,2019,5,19.09,34.067,136.2,27.0,OWASE,JA,Japan,34.067
JA000047666,2019,5,19.15,34.6,138.85,56.0,IROZAKI,JA,Japan,34.6
JA000047668,2019,5,19.11,35.05,139.1,68.0,AJIRO,JA,Japan,35.05
JA000047670,2019,5,19.89,35.433,139.65,42.0,YOKOHAMA,JA,Japan,35.433
JA000047672,2019,5,19.09,34.983,139.867,7.0,TATEYAMA,JA,Japan,34.983
JA000047674,2019,5,18.66,35.15,140.317,13.0,KATSUURA,JA,Japan,35.15
JA000047675,2019,5,19.15,34.75,139.383,79.0,OSHIMA,JA,Japan,34.75
JA000047677,2019,5,20.02,34.117,139.517,37.0,MIYAKEJIMA,JA,Japan,34.117
JA000047678,2019,5,19.4,33.117,139.783,80.0,HACHIJOJIMA,JA,Japan,33.117
JA000047682,2019,5,20.02,35.6,140.1,19.0,CHIBA,JA,Japan,35.6
JA000047684,2019,5,18.78,34.933,136.583,56.0,YOKKAICHI,JA,Japan,34.933
JA000047690,2019,5,10.89,36.733,139.5,1294.0,NIKKO,JA,Japan,36.733
JA000047740,2019,5,17.5,36.2,133.333,31.0,SAIGO,JA,Japan,36.2
JA000047741,2019,5,19.45,35.45,133.067,23.0,MATSUE,JA,Japan,35.45
JA000047742,2019,5,19.27,35.55,133.233,3.0,SAKAI,JA,Japan,35.55
JA000047744,2019,5,19.34,35.433,133.333,9.0,YONAGO,JA,Japan,35.433
JA000047746,2019,5,19.4,35.483,134.233,16.0,TOTTORI,JA,Japan,35.483
JA000047747,2019,5,21.28,35.5,134.783,183.0,TAJIMA,JA,Japan,35.5
JA000047750,2019,5,18.95,35.45,135.333,30.0,MAIZURU_REG_MET_HQ,JA,Japan,35.45
JA000047754,2019,5,20.73,34.683,131.783,57.0,IWAMI_AIRPORT,JA,Japan,34.683
JA000047755,2019,5,18.79,34.9,132.067,20.0,HAMADA,JA,Japan,34.9
JA000047756,2019,5,18.04,35.067,134.017,147.0,TSUYAMA,JA,Japan,35.067
JA000047759,2019,5,20.65,35.017,135.733,46.0,KYOTO,JA,Japan,35.017
JA000047761,2019,5,18.52,35.283,136.25,89.0,HIKONE,JA,Japan,35.283
JA000047762,2019,5,20.18,33.95,130.933,19.0,SHIMONOSEKI,JA,Japan,33.95
JA000047765,2019,5,20.5,34.4,132.467,53.0,HIROSHIMA,JA,Japan,34.4
JA000047767,2019,5,19.11,34.45,133.25,3.0,FUKUYAMA,JA,Japan,34.45
JA000047768,2019,5,19.87,34.667,133.917,18.0,OKAYAMA,JA,Japan,34.667
JA000047769,2019,5,19.19,34.833,134.667,40.0,HIMEJI,JA,Japan,34.833
JA000047770,2019,5,20.6,34.7,135.217,30.0,KOBE,JA,Japan,34.7
JA000047772,2019,5,19.59,34.433,135.25,8.0,KANSAI_INTERNATIONA,JA,Japan,34.433
JA000047776,2019,5,19.47,34.333,134.9,112.0,SUMOTO,JA,Japan,34.333
JA000047777,2019,5,20.13,34.233,135.167,18.0,WAKAYAMA,JA,Japan,34.233
JA000047778,2019,5,19.6,33.45,135.75,76.0,SHIONOMISAKI,JA,Japan,33.45
JA000047780,2019,5,19.77,34.7,135.833,106.0,NARA,JA,Japan,34.7
JA000047784,2019,5,19.65,34.167,131.45,18.0,YAMAGUCHI,JA,Japan,34.167
JA000047800,2019,5,20.0,34.2,129.3,19.0,IZUHARA,JA,Japan,34.2
JA000047805,2019,5,18.97,33.367,129.55,59.0,HIRADO,JA,Japan,33.367
JA000047807,2019,5,21.55,33.583,130.383,15.0,FUKUOKA,JA,Japan,33.583
JA000047809,2019,5,19.95,33.65,130.699,38.0,IIZUKA,JA,Japan,33.65
JA000047813,2019,5,21.1,33.267,130.3,32.0,SAGA,JA,Japan,33.267
JA000047814,2019,5,19.86,33.317,130.933,84.0,HITA,JA,Japan,33.317
JA000047815,2019,5,20.25,33.233,131.617,13.0,OITA,JA,Japan,33.233
JA000047817,2019,5,20.55,32.732,129.866,35.0,NAGASAKI,JA,Japan,32.732
JA000047819,2019,5,21.05,32.817,130.699,39.0,KUMAMOTO,JA,Japan,32.817
JA000047822,2019,5,19.44,32.583,131.65,21.0,NOBEOKA,JA,Japan,32.583
JA000047823,2019,5,19.63,32.033,130.199,45.0,AKUNE,JA,Japan,32.033
JA000047824,2019,5,19.19,32.217,130.75,147.0,HITOYOSHI,JA,Japan,32.217
JA000047827,2019,5,21.65,31.55,130.55,32.0,KAGOSHIMA,JA,Japan,31.55
JA000047829,2019,5,19.76,31.733,131.083,156.0,MIYAKONOJO,JA,Japan,31.733
JA000047830,2019,5,20.7,31.933,131.417,15.0,MIYAZAKI,JA,Japan,31.933
JA000047831,2019,5,20.22,31.267,130.3,31.0,MAKURAZAKI,JA,Japan,31.267
JA000047835,2019,5,20.51,31.583,131.4,15.0,ABURATSU,JA,Japan,31.583
JA000047836,2019,5,21.48,30.383,130.667,38.0,YAKUSHIMA,JA,Japan,30.383
JA000047837,2019,5,21.51,30.733,130.983,18.0,TANEGASHIMA,JA,Japan,30.733
JA000047838,2019,5,20.59,31.717,130.032,14.0,USHIBUKA,JA,Japan,31.717
JA000047843,2019,5,19.55,32.7,128.833,26.0,FUKUE,JA,Japan,32.7
JA000047887,2019,5,20.45,33.85,132.783,34.0,MATSUYAMA,JA,Japan,33.85
JA000047890,2019,5,19.87,34.283,133.75,5.0,TADOTSU,JA,Japan,34.283
JA000047891,2019,5,20.9,34.317,134.05,10.0,TAKAMATSU,JA,Japan,34.317
JA000047892,2019,5,19.78,33.233,132.55,14.0,UWAJIMA,JA,Japan,33.233
JA000047893,2019,5,20.1,33.567,133.55,5.0,KOCHI,JA,Japan,33.567
JA000047895,2019,5,20.35,34.067,134.567,6.0,TOKUSHIMA,JA,Japan,34.067
JA000047897,2019,5,19.75,32.917,132.7,11.0,SUKUMO,JA,Japan,32.917
JA000047898,2019,5,20.73,32.717,133.017,33.0,SHIMIZU,JA,Japan,32.717
JA000047899,2019,5,19.25,33.25,134.183,186.0,MUROTOMISAKI,JA,Japan,33.25
JA000047909,2019,5,22.85,28.383,129.5,8.0,NAZE,JA,Japan,28.383
JA000047927,2019,5,26.06,24.817,125.133,16.0,SHIMOJISHIMA,JA,Japan,24.817
JA000047929,2019,5,24.25,26.333,126.8,5.0,KUMEJIMA,JA,Japan,26.333
JA000047936,2019,5,24.45,26.2,127.683,53.0,NAHA,JA,Japan,26.2
JA000047940,2019,5,23.75,26.6,127.967,7.0,NAGO,JA,Japan,26.6
JA000047942,2019,5,23.61,27.033,128.4,16.0,YORON,JA,Japan,27.033
JA000047945,2019,5,24.29,25.933,131.317,24.0,KITADAITO,JA,Japan,25.933
JA000047991,2019,5,26.15,24.3,153.967,6.1,MINAMI_TORI_SHIMA_MA,JA,Japan,24.3
JAM00047772,2019,5,21.35,34.683,135.517,83.0,OSAKA,JA,Japan,34.683
JAM00047918,2019,5,26.2,24.345,124.187,28.3,ISHIGAKI,JA,Japan,24.345
JAM00047927,2019,5,25.35,24.783,125.295,45.7,MIYAKO,JA,Japan,24.783
JAM00047945,2019,5,23.9,25.847,131.263,50.9,MINAMI_DAITO,JA,Japan,25.847
JAW00042402,2019,5,22.5,27.0833,142.2,8.2,CHICHI_JIMA_BONIN_IS,JA,Japan,27.0833
JA000047401,2019,6,13.65,45.417,141.683,12.0,WAKKANAI,JA,Japan,45.417
JA000047402,2019,6,13.15,44.933,142.583,8.0,KITAMIESASHI,JA,Japan,44.933
JA000047404,2019,6,16.09,44.367,141.7,10.0,HABORO,JA,Japan,44.367
JA000047405,2019,6,13.24,44.583,142.967,15.0,OMU,JA,Japan,44.583
JA000047406,2019,6,16.09,43.95,141.633,28.0,RUMOI,JA,Japan,43.95
JA000047407,2019,6,17.9,43.767,142.367,116.0,ASAHIKAWA,JA,Japan,43.767
JA000047409,2019,6,14.5,44.017,144.283,43.0,ABASHIRI,JA,Japan,44.017
JA000047411,2019,6,16.58,43.183,141.017,26.0,OTARU,JA,Japan,43.183
JA000047412,2019,6,18.1,43.067,141.333,26.0,SAPPORO,JA,Japan,43.067
JA000047413,2019,6,16.74,43.217,141.783,51.0,IWAMIZAWA,JA,Japan,43.217
JA000047417,2019,6,15.49,42.917,143.217,43.0,OBIHIRO,JA,Japan,42.917
JA000047418,2019,6,13.3,42.95,144.433,16.0,KUSHIRO,JA,Japan,42.95
JA000047420,2019,6,12.5,43.333,145.583,39.0,NEMURO,JA,Japan,43.333
JA000047421,2019,6,16.3,42.8,140.217,38.0,SUTTSU,JA,Japan,42.8
JA000047423,2019,6,15.06,42.317,140.983,49.0,MURORAN,JA,Japan,42.317
JA000047424,2019,6,14.5,42.617,141.55,11.0,TOMAKOMAI,JA,Japan,42.617
JA000047426,2019,6,14.4,42.167,142.783,37.0,URAKAWA,JA,Japan,42.167
JA000047428,2019,6,17.25,41.867,140.117,12.0,ESASHI,JA,Japan,41.867
JA000047430,2019,6,17.15,41.817,140.75,43.0,HAKODATE,JA,Japan,41.817
JA000047433,2019,6,15.79,42.9,140.75,188.0,KUTCHAN,JA,Japan,42.9
JA000047435,2019,6,13.5,44.35,143.35,16.0,MOMBETSU,JA,Japan,44.35
JA000047440,2019,6,13.26,42.3,143.317,33.0,HIROO,JA,Japan,42.3
JA000047512,2019,6,17.84,39.067,141.717,41.0,OFUNATO,JA,Japan,39.067
JA000047520,2019,6,19.02,38.75,140.317,102.0,SHINJO,JA,Japan,38.75
JA000047570,2019,6,20.85,37.483,139.917,213.0,WAKAMATSU,JA,Japan,37.483
JA000047574,2019,6,18.24,40.65,139.933,67.0,FUKAURA,JA,Japan,40.65
JA000047575,2019,6,18.55,40.817,140.767,3.0,AOMORI,JA,Japan,40.817
JA000047576,2019,6,16.23,41.283,141.217,5.0,MUTSU,JA,Japan,41.283
JA000047581,2019,6,16.44,40.533,141.517,28.0,HACHINOHE,JA,Japan,40.533
JA000047582,2019,6,20.2,39.717,140.1,7.0,AKITA,JA,Japan,39.717
JA000047584,2019,6,18.9,39.7,141.167,155.0,MORIOKA,JA,Japan,39.7
JA000047585,2019,6,16.13,39.65,141.967,46.0,MIYAKO,JA,Japan,39.65
JA000047587,2019,6,20.51,38.8,139.783,26.0,SHONAI,JA,Japan,38.8
JA000047588,2019,6,19.96,38.25,140.35,153.0,YAMAGATA,JA,Japan,38.25
JA000047590,2019,6,19.35,38.267,140.9,43.0,SENDAI,JA,Japan,38.267
JA000047592,2019,6,18.03,38.433,141.3,43.0,ISHINOMAKI,JA,Japan,38.433
JA000047597,2019,6,18.65,37.133,140.217,357.0,SHIRAKAWA,JA,Japan,37.133
JA000047598,2019,6,19.68,36.95,140.9,5.0,ONAHAMA,JA,Japan,36.95
JA000047600,2019,6,20.3,37.4,136.9,15.0,WAJIMA,JA,Japan,37.4
JA000047602,2019,6,20.27,38.033,138.233,17.0,AIKAWA,JA,Japan,38.033
JA000047604,2019,6,21.1,37.917,139.05,6.0,NIIGATA,JA,Japan,37.917
JA000047605,2019,6,22.1,36.583,136.633,33.0,KANAZAWA,JA,Japan,36.583
JA000047606,2019,6,20.84,36.8,137.05,13.0,FUSHIKI,JA,Japan,36.8
JA000047607,2019,6,21.46,36.717,137.2,17.0,TOYAMA,JA,Japan,36.717
JA000047610,2019,6,20.7,36.667,138.2,419.0,NAGANO,JA,Japan,36.667
JA000047612,2019,6,20.97,37.1,138.25,18.0,TAKADA,JA,Japan,37.1
JA000047615,2019,6,20.91,36.55,139.867,140.0,UTSUNOMIYA,JA,Japan,36.55
JA000047616,2019,6,22.05,36.05,136.217,17.0,FUKUI,JA,Japan,36.05
JA000047617,2019,6,19.39,36.15,137.25,561.0,TAKAYAMA,JA,Japan,36.15
JA000047618,2019,6,19.87,36.25,137.967,611.0,MATSUMOTO,JA,Japan,36.25
JA000047620,2019,6,18.87,36.05,138.117,762.0,SUWA,JA,Japan,36.05
JA000047622,2019,6,15.56,36.35,138.55,1004.0,KARUIZAWA,JA,Japan,36.35
JA000047624,2019,6,22.2,36.4,139.067,113.0,MAEBASHI,JA,Japan,36.4
JA000047626,2019,6,22.09,36.15,139.383,31.0,KUMAGAYA,JA,Japan,36.15
JA000047629,2019,6,21.0,36.383,140.467,31.0,MITO,JA,Japan,36.383
JA000047631,2019,6,22.23,35.65,136.067,12.0,TSURUGA,JA,Japan,35.65
JA000047632,2019,6,23.37,35.4,136.767,17.0,GIFU,JA,Japan,35.4
JA000047636,2019,6,23.6,35.167,136.967,56.0,NAGOYA,JA,Japan,35.167
JA000047637,2019,6,20.28,35.517,137.817,529.0,IIDA,JA,Japan,35.517
JA000047638,2019,6,22.33,35.667,138.55,281.0,KOFU,JA,Japan,35.667
JA000047640,2019,6,17.45,35.5,138.767,861.0,KAWAGUCHIKO,JA,Japan,35.5
JA000047641,2019,6,20.57,35.983,139.067,234.0,CHICHIBU,JA,Japan,35.983
JA000047648,2019,6,21.0,35.733,140.85,28.0,CHOSHI,JA,Japan,35.733
JA000047649,2019,6,21.96,34.767,136.15,161.0,UENO,JA,Japan,34.767
JA000047651,2019,6,22.9,34.733,136.517,18.0,TSU,JA,Japan,34.733
JA000047653,2019,6,22.55,34.633,137.1,8.0,IRAKO,JA,Japan,34.633
JA000047654,2019,6,22.68,34.717,137.717,33.0,HAMAMATSU,JA,Japan,34.717
JA000047655,2019,6,22.4,34.6,138.217,47.0,OMAEZAKI,JA,Japan,34.6
JA000047656,2019,6,22.64,34.983,138.4,15.0,SHIZUOKA,JA,Japan,34.983
JA000047657,2019,6,22.46,35.117,138.933,22.0,MISHIMA,JA,Japan,35.117
JA000047662,2019,6,22.15,35.683,139.767,36.0,TOKYO,JA,Japan,35.683
JA000047663,2019,6,22.34,34.067,136.2,27.0,OWASE,JA,Japan,34.067
JA000047666,2019,6,21.57,34.6,138.85,56.0,IROZAKI,JA,Japan,34.6
JA000047668,2019,6,21.12,35.05,139.1,68.0,AJIRO,JA,Japan,35.05
JA000047670,2019,6,21.89,35.433,139.65,42.0,YOKOHAMA,JA,Japan,35.433
JA000047672,2019,6,21.69,34.983,139.867,7.0,TATEYAMA,JA,Japan,34.983
JA000047674,2019,6,20.9,35.15,140.317,13.0,KATSUURA,JA,Japan,35.15
JA000047675,2019,6,21.55,34.75,139.383,79.0,OSHIMA,JA,Japan,34.75
JA000047677,2019,6,22.42,34.117,139.517,37.0,MIYAKEJIMA,JA,Japan,34.117
JA000047678,2019,6,22.05,33.117,139.783,80.0,HACHIJOJIMA,JA,Japan,33.117
JA000047682,2019,6,21.99,35.6,140.1,19.0,CHIBA,JA,Japan,35.6
JA000047684,2019,6,21.91,34.933,136.583,56.0,YOKKAICHI,JA,Japan,34.933
JA000047690,2019,6,13.52,36.733,139.5,1294.0,NIKKO,JA,Japan,36.733
JA000047740,2019,6,20.35,36.2,133.333,31.0,SAIGO,JA,Japan,36.2
JA000047741,2019,6,22.1,35.45,133.067,23.0,MATSUE,JA,Japan,35.45
JA000047742,2019,6,21.61,35.55,133.233,3.0,SAKAI,JA,Japan,35.55
JA000047744,2019,6,21.87,35.433,133.333,9.0,YONAGO,JA,Japan,35.433
JA000047746,2019,6,22.4,35.483,134.233,16.0,TOTTORI,JA,Japan,35.483
JA000047747,2019,6,22.45,35.5,134.783,183.0,TAJIMA,JA,Japan,35.5
JA000047750,2019,6,22.2,35.45,135.333,30.0,MAIZURU_REG_MET_HQ,JA,Japan,35.45
JA000047754,2019,6,22.22,34.683,131.783,57.0,IWAMI_AIRPORT,JA,Japan,34.683
JA000047755,2019,6,20.96,34.9,132.067,20.0,HAMADA,JA,Japan,34.9
JA000047756,2019,6,21.57,35.067,134.017,147.0,TSUYAMA,JA,Japan,35.067
JA000047759,2019,6,23.64,35.017,135.733,46.0,KYOTO,JA,Japan,35.017
JA000047761,2019,6,22.13,35.283,136.25,89.0,HIKONE,JA,Japan,35.283
JA000047762,2019,6,22.55,33.95,130.933,19.0,SHIMONOSEKI,JA,Japan,33.95
JA000047765,2019,6,23.55,34.4,132.467,53.0,HIROSHIMA,JA,Japan,34.4
JA000047767,2019,6,22.76,34.45,133.25,3.0,FUKUYAMA,JA,Japan,34.45
JA000047768,2019,6,23.3,34.667,133.917,18.0,OKAYAMA,JA,Japan,34.667
JA000047769,2019,6,22.73,34.833,134.667,40.0,HIMEJI,JA,Japan,34.833
JA000047770,2019,6,23.45,34.7,135.217,30.0,KOBE,JA,Japan,34.7
JA000047772,2019,6,22.96,34.433,135.25,8.0,KANSAI_INTERNATIONA,JA,Japan,34.433
JA000047776,2019,6,22.74,34.333,134.9,112.0,SUMOTO,JA,Japan,34.333
JA000047777,2019,6,23.55,34.233,135.167,18.0,WAKAYAMA,JA,Japan,34.233
JA000047778,2019,6,22.35,33.45,135.75,76.0,SHIONOMISAKI,JA,Japan,33.45
JA000047780,2019,6,22.84,34.7,135.833,106.0,NARA,JA,Japan,34.7
JA000047784,2019,6,22.74,34.167,131.45,18.0,YAMAGUCHI,JA,Japan,34.167
JA000047800,2019,6,21.95,34.2,129.3,19.0,IZUHARA,JA,Japan,34.2
JA000047805,2019,6,21.38,33.367,129.55,59.0,HIRADO,JA,Japan,33.367
JA000047807,2019,6,24.0,33.583,130.383,15.0,FUKUOKA,JA,Japan,33.583
JA000047809,2019,6,22.59,33.65,130.699,38.0,IIZUKA,JA,Japan,33.65
JA000047813,2019,6,23.9,33.267,130.3,32.0,SAGA,JA,Japan,33.267
JA000047814,2019,6,23.14,33.317,130.933,84.0,HITA,JA,Japan,33.317
JA000047815,2019,6,23.3,33.233,131.617,13.0,OITA,JA,Japan,33.233
JA000047817,2019,6,23.45,32.732,129.866,35.0,NAGASAKI,JA,Japan,32.732
JA000047819,2019,6,23.78,32.817,130.699,39.0,KUMAMOTO,JA,Japan,32.817
JA000047822,2019,6,22.73,32.583,131.65,21.0,NOBEOKA,JA,Japan,32.583
JA000047823,2019,6,22.45,32.033,130.199,45.0,AKUNE,JA,Japan,32.033
JA000047824,2019,6,22.44,32.217,130.75,147.0,HITOYOSHI,JA,Japan,32.217
JA000047827,2019,6,24.4,31.55,130.55,32.0,KAGOSHIMA,JA,Japan,31.55
JA000047829,2019,6,22.77,31.733,131.083,156.0,MIYAKONOJO,JA,Japan,31.733
JA000047830,2019,6,23.45,31.933,131.417,15.0,MIYAZAKI,JA,Japan,31.933
JA000047831,2019,6,23.02,31.267,130.3,31.0,MAKURAZAKI,JA,Japan,31.267
JA000047835,2019,6,23.28,31.583,131.4,15.0,ABURATSU,JA,Japan,31.583
JA000047836,2019,6,23.1,30.383,130.667,38.0,YAKUSHIMA,JA,Japan,30.383
JA000047837,2019,6,23.48,30.733,130.983,18.0,TANEGASHIMA,JA,Japan,30.733
JA000047838,2019,6,23.26,31.717,130.032,14.0,USHIBUKA,JA,Japan,31.717
JA000047843,2019,6,22.0,32.7,128.833,26.0,FUKUE,JA,Japan,32.7
JA000047887,2019,6,23.5,33.85,132.783,34.0,MATSUYAMA,JA,Japan,33.85
JA000047890,2019,6,23.29,34.283,133.75,5.0,TADOTSU,JA,Japan,34.283
JA000047891,2019,6,24.05,34.317,134.05,10.0,TAKAMATSU,JA,Japan,34.317
JA000047892,2019,6,22.82,33.233,132.55,14.0,UWAJIMA,JA,Japan,33.233
JA000047893,2019,6,23.4,33.567,133.55,5.0,KOCHI,JA,Japan,33.567
JA000047895,2019,6,23.55,34.067,134.567,6.0,TOKUSHIMA,JA,Japan,34.067
JA000047897,2019,6,23.03,32.917,132.7,11.0,SUKUMO,JA,Japan,32.917
JA000047898,2019,6,23.21,32.717,133.017,33.0,SHIMIZU,JA,Japan,32.717
JA000047899,2019,6,21.74,33.25,134.183,186.0,MUROTOMISAKI,JA,Japan,33.25
JA000047909,2019,6,25.55,28.383,129.5,8.0,NAZE,JA,Japan,28.383
JA000047927,2019,6,28.42,24.817,125.133,16.0,SHIMOJISHIMA,JA,Japan,24.817
JA000047929,2019,6,26.71,26.333,126.8,5.0,KUMEJIMA,JA,Japan,26.333
JA000047936,2019,6,26.7,26.2,127.683,53.0,NAHA,JA,Japan,26.2
JA000047940,2019,6,26.17,26.6,127.967,7.0,NAGO,JA,Japan,26.6
JA000047942,2019,6,24.98,27.033,128.4,16.0,YORON,JA,Japan,27.033
JA000047945,2019,6,26.17,25.933,131.317,24.0,KITADAITO,JA,Japan,25.933
JA000047991,2019,6,28.75,24.3,153.967,6.1,MINAMI_TORI_SHIMA_MA,JA,Japan,24.3
JAM00047772,2019,6,24.35,34.683,135.517,83.0,OSAKA,JA,Japan,34.683
JAM00047918,2019,6,28.6,24.345,124.187,28.3,ISHIGAKI,JA,Japan,24.345
JAM00047927,2019,6,28.0,24.783,125.295,45.7,MIYAKO,JA,Japan,24.783
JAM00047945,2019,6,26.45,25.847,131.263,50.9,MINAMI_DAITO,JA,Japan,25.847
JAW00042402,2019,6,26.15,27.0833,142.2,8.2,CHICHI_JIMA_BONIN_IS,JA,Japan,27.0833
JA000047401,2019,7,18.45,45.417,141.683,12.0,WAKKANAI,JA,Japan,45.417
JA000047402,2019,7,17.37,44.933,142.583,8.0,KITAMIESASHI,JA,Japan,44.933
JA000047404,2019,7,20.42,44.367,141.7,10.0,HABORO,JA,Japan,44.367
JA000047405,2019,7,17.78,44.583,142.967,15.0,OMU,JA,Japan,44.583
JA000047406,2019,7,20.59,43.95,141.633,28.0,RUMOI,JA,Japan,43.95
JA000047407,2019,7,22.75,43.767,142.367,116.0,ASAHIKAWA,JA,Japan,43.767
JA000047409,2019,7,19.4,44.017,144.283,43.0,ABASHIRI,JA,Japan,44.017
JA000047411,2019,7,21.15,43.183,141.017,26.0,OTARU,JA,Japan,43.183
JA000047412,2019,7,22.4,43.067,141.333,26.0,SAPPORO,JA,Japan,43.067
JA000047413,2019,7,20.75,43.217,141.783,51.0,IWAMIZAWA,JA,Japan,43.217
JA000047417,2019,7,19.15,42.917,143.217,43.0,OBIHIRO,JA,Japan,42.917
JA000047418,2019,7,17.45,42.95,144.433,16.0,KUSHIRO,JA,Japan,42.95
JA000047420,2019,7,16.6,43.333,145.583,39.0,NEMURO,JA,Japan,43.333
JA000047421,2019,7,20.45,42.8,140.217,38.0,SUTTSU,JA,Japan,42.8
JA000047423,2019,7,18.34,42.317,140.983,49.0,MURORAN,JA,Japan,42.317
JA000047424,2019,7,18.18,42.617,141.55,11.0,TOMAKOMAI,JA,Japan,42.617
JA000047426,2019,7,18.35,42.167,142.783,37.0,URAKAWA,JA,Japan,42.167
JA000047428,2019,7,21.38,41.867,140.117,12.0,ESASHI,JA,Japan,41.867
JA000047430,2019,7,21.05,41.817,140.75,43.0,HAKODATE,JA,Japan,41.817
JA000047433,2019,7,20.17,42.9,140.75,188.0,KUTCHAN,JA,Japan,42.9
JA000047435,2019,7,18.28,44.35,143.35,16.0,MOMBETSU,JA,Japan,44.35
JA000047440,2019,7,17.39,42.3,143.317,33.0,HIROO,JA,Japan,42.3
JA000047512,2019,7,21.81,39.067,141.717,41.0,OFUNATO,JA,Japan,39.067
JA000047520,2019,7,23.09,38.75,140.317,102.0,SHINJO,JA,Japan,38.75
JA000047570,2019,7,24.65,37.483,139.917,213.0,WAKAMATSU,JA,Japan,37.483
JA000047574,2019,7,22.53,40.65,139.933,67.0,FUKAURA,JA,Japan,40.65
JA000047575,2019,7,22.7,40.817,140.767,3.0,AOMORI,JA,Japan,40.817
JA000047576,2019,7,20.15,41.283,141.217,5.0,MUTSU,JA,Japan,41.283
JA000047581,2019,7,20.89,40.533,141.517,28.0,HACHINOHE,JA,Japan,40.533
JA000047582,2019,7,24.75,39.717,140.1,7.0,AKITA,JA,Japan,39.717
JA000047584,2019,7,23.15,39.7,141.167,155.0,MORIOKA,JA,Japan,39.7
JA000047585,2019,7,20.87,39.65,141.967,46.0,MIYAKO,JA,Japan,39.65
JA000047587,2019,7,24.71,38.8,139.783,26.0,SHONAI,JA,Japan,38.8
JA000047588,2019,7,23.55,38.25,140.35,153.0,YAMAGATA,JA,Japan,38.25
JA000047590,2019,7,22.95,38.267,140.9,43.0,SENDAI,JA,Japan,38.267
JA000047592,2019,7,21.53,38.433,141.3,43.0,ISHINOMAKI,JA,Japan,38.433
JA000047597,2019,7,21.6,37.133,140.217,357.0,SHIRAKAWA,JA,Japan,37.133
JA000047598,2019,7,22.46,36.95,140.9,5.0,ONAHAMA,JA,Japan,36.95
JA000047600,2019,7,25.1,37.4,136.9,15.0,WAJIMA,JA,Japan,37.4
JA000047602,2019,7,24.62,38.033,138.233,17.0,AIKAWA,JA,Japan,38.033
JA000047604,2019,7,25.6,37.917,139.05,6.0,NIIGATA,JA,Japan,37.917
JA000047605,2019,7,26.3,36.583,136.633,33.0,KANAZAWA,JA,Japan,36.583
JA000047606,2019,7,25.16,36.8,137.05,13.0,FUSHIKI,JA,Japan,36.8
JA000047607,2019,7,25.55,36.717,137.2,17.0,TOYAMA,JA,Japan,36.717
JA000047610,2019,7,24.9,36.667,138.2,419.0,NAGANO,JA,Japan,36.667
JA000047612,2019,7,25.29,37.1,138.25,18.0,TAKADA,JA,Japan,37.1
JA000047615,2019,7,23.71,36.55,139.867,140.0,UTSUNOMIYA,JA,Japan,36.55
JA000047616,2019,7,25.79,36.05,136.217,17.0,FUKUI,JA,Japan,36.05
JA000047617,2019,7,23.37,36.15,137.25,561.0,TAKAYAMA,JA,Japan,36.15
JA000047618,2019,7,23.68,36.25,137.967,611.0,MATSUMOTO,JA,Japan,36.25
JA000047620,2019,7,22.32,36.05,138.117,762.0,SUWA,JA,Japan,36.05
JA000047622,2019,7,18.71,36.35,138.55,1004.0,KARUIZAWA,JA,Japan,36.35
JA000047624,2019,7,24.7,36.4,139.067,113.0,MAEBASHI,JA,Japan,36.4
JA000047626,2019,7,24.62,36.15,139.383,31.0,KUMAGAYA,JA,Japan,36.15
JA000047629,2019,7,24.05,36.383,140.467,31.0,MITO,JA,Japan,36.383
JA000047631,2019,7,25.72,35.65,136.067,12.0,TSURUGA,JA,Japan,35.65
JA000047632,2019,7,26.28,35.4,136.767,17.0,GIFU,JA,Japan,35.4
JA000047636,2019,7,26.3,35.167,136.967,56.0,NAGOYA,JA,Japan,35.167
JA000047637,2019,7,23.58,35.517,137.817,529.0,IIDA,JA,Japan,35.517
JA000047638,2019,7,24.87,35.667,138.55,281.0,KOFU,JA,Japan,35.667
JA000047640,2019,7,20.35,35.5,138.767,861.0,KAWAGUCHIKO,JA,Japan,35.5
JA000047641,2019,7,23.1,35.983,139.067,234.0,CHICHIBU,JA,Japan,35.983
JA000047648,2019,7,23.6,35.733,140.85,28.0,CHOSHI,JA,Japan,35.733
JA000047649,2019,7,24.98,34.767,136.15,161.0,UENO,JA,Japan,34.767
JA000047651,2019,7,25.8,34.733,136.517,18.0,TSU,JA,Japan,34.733
JA000047653,2019,7,25.15,34.633,137.1,8.0,IRAKO,JA,Japan,34.633
JA000047654,2019,7,25.11,34.717,137.717,33.0,HAMAMATSU,JA,Japan,34.717
JA000047655,2019,7,24.7,34.6,138.217,47.0,OMAEZAKI,JA,Japan,34.6
JA000047656,2019,7,25.2,34.983,138.4,15.0,SHIZUOKA,JA,Japan,34.983
JA000047657,2019,7,25.13,35.117,138.933,22.0,MISHIMA,JA,Japan,35.117
JA000047662,2019,7,24.55,35.683,139.767,36.0,TOKYO,JA,Japan,35.683
JA000047663,2019,7,24.42,34.067,136.2,27.0,OWASE,JA,Japan,34.067
JA000047666,2019,7,23.94,34.6,138.85,56.0,IROZAKI,JA,Japan,34.6
JA000047668,2019,7,23.96,35.05,139.1,68.0,AJIRO,JA,Japan,35.05
JA000047670,2019,7,24.3,35.433,139.65,42.0,YOKOHAMA,JA,Japan,35.433
JA000047672,2019,7,24.26,34.983,139.867,7.0,TATEYAMA,JA,Japan,34.983
JA000047674,2019,7,23.25,35.15,140.317,13.0,KATSUURA,JA,Japan,35.15
JA000047675,2019,7,24.25,34.75,139.383,79.0,OSHIMA,JA,Japan,34.75
JA000047677,2019,7,24.99,34.117,139.517,37.0,MIYAKEJIMA,JA,Japan,34.117
JA000047678,2019,7,25.4,33.117,139.783,80.0,HACHIJOJIMA,JA,Japan,33.117
JA000047682,2019,7,24.38,35.6,140.1,19.0,CHIBA,JA,Japan,35.6
JA000047684,2019,7,24.79,34.933,136.583,56.0,YOKKAICHI,JA,Japan,34.933
JA000047690,2019,7,17.17,36.733,139.5,1294.0,NIKKO,JA,Japan,36.733
JA000047740,2019,7,24.7,36.2,133.333,31.0,SAIGO,JA,Japan,36.2
JA000047741,2019,7,25.9,35.45,133.067,23.0,MATSUE,JA,Japan,35.45
JA000047742,2019,7,25.68,35.55,133.233,3.0,SAKAI,JA,Japan,35.55
JA000047744,2019,7,25.83,35.433,133.333,9.0,YONAGO,JA,Japan,35.433
JA000047746,2019,7,26.45,35.483,134.233,16.0,TOTTORI,JA,Japan,35.483
JA000047747,2019,7,25.63,35.5,134.783,183.0,TAJIMA,JA,Japan,35.5
JA000047750,2019,7,25.95,35.45,135.333,30.0,MAIZURU_REG_MET_HQ,JA,Japan,35.45
JA000047754,2019,7,25.92,34.683,131.783,57.0,IWAMI_AIRPORT,JA,Japan,34.683
JA000047755,2019,7,24.99,34.9,132.067,20.0,HAMADA,JA,Japan,34.9
JA000047756,2019,7,24.89,35.067,134.017,147.0,TSUYAMA,JA,Japan,35.067
JA000047759,2019,7,26.41,35.017,135.733,46.0,KYOTO,JA,Japan,35.017
JA000047761,2019,7,25.31,35.283,136.25,89.0,HIKONE,JA,Japan,35.283
JA000047762,2019,7,25.74,33.95,130.933,19.0,SHIMONOSEKI,JA,Japan,33.95
JA000047765,2019,7,26.75,34.4,132.467,53.0,HIROSHIMA,JA,Japan,34.4
JA000047767,2019,7,25.75,34.45,133.25,3.0,FUKUYAMA,JA,Japan,34.45
JA000047768,2019,7,26.35,34.667,133.917,18.0,OKAYAMA,JA,Japan,34.667
JA000047769,2019,7,25.8,34.833,134.667,40.0,HIMEJI,JA,Japan,34.833
JA000047770,2019,7,26.39,34.7,135.217,30.0,KOBE,JA,Japan,34.7
JA000047772,2019,7,25.75,34.433,135.25,8.0,KANSAI_INTERNATIONA,JA,Japan,34.433
JA000047776,2019,7,25.49,34.333,134.9,112.0,SUMOTO,JA,Japan,34.333
JA000047777,2019,7,26.35,34.233,135.167,18.0,WAKAYAMA,JA,Japan,34.233
JA000047778,2019,7,24.8,33.45,135.75,76.0,SHIONOMISAKI,JA,Japan,33.45
JA000047780,2019,7,25.7,34.7,135.833,106.0,NARA,JA,Japan,34.7
JA000047784,2019,7,25.72,34.167,131.45,18.0,YAMAGUCHI,JA,Japan,34.167
JA000047800,2019,7,25.35,34.2,129.3,19.0,IZUHARA,JA,Japan,34.2
JA000047805,2019,7,24.1,33.367,129.55,59.0,HIRADO,JA,Japan,33.367
JA000047807,2019,7,26.95,33.583,130.383,15.0,FUKUOKA,JA,Japan,33.583
JA000047809,2019,7,25.77,33.65,130.699,38.0,IIZUKA,JA,Japan,33.65
JA000047813,2019,7,26.52,33.267,130.3,32.0,SAGA,JA,Japan,33.267
JA000047814,2019,7,25.93,33.317,130.933,84.0,HITA,JA,Japan,33.317
JA000047815,2019,7,26.2,33.233,131.617,13.0,OITA,JA,Japan,33.233
JA000047817,2019,7,26.25,32.732,129.866,35.0,NAGASAKI,JA,Japan,32.732
JA000047819,2019,7,26.62,32.817,130.699,39.0,KUMAMOTO,JA,Japan,32.817
JA000047822,2019,7,25.18,32.583,131.65,21.0,NOBEOKA,JA,Japan,32.583
JA000047823,2019,7,25.79,32.033,130.199,45.0,AKUNE,JA,Japan,32.033
JA000047824,2019,7,25.35,32.217,130.75,147.0,HITOYOSHI,JA,Japan,32.217
JA000047827,2019,7,27.65,31.55,130.55,32.0,KAGOSHIMA,JA,Japan,31.55
JA000047829,2019,7,25.98,31.733,131.083,156.0,MIYAKONOJO,JA,Japan,31.733
JA000047830,2019,7,26.7,31.933,131.417,15.0,MIYAZAKI,JA,Japan,31.933
JA000047831,2019,7,26.42,31.267,130.3,31.0,MAKURAZAKI,JA,Japan,31.267
JA000047835,2019,7,25.93,31.583,131.4,15.0,ABURATSU,JA,Japan,31.583
JA000047836,2019,7,26.56,30.383,130.667,38.0,YAKUSHIMA,JA,Japan,30.383
JA000047837,2019,7,26.96,30.733,130.983,18.0,TANEGASHIMA,JA,Japan,30.733
JA000047838,2019,7,26.26,31.717,130.032,14.0,USHIBUKA,JA,Japan,31.717
JA000047843,2019,7,25.3,32.7,128.833,26.0,FUKUE,JA,Japan,32.7
JA000047887,2019,7,26.65,33.85,132.783,34.0,MATSUYAMA,JA,Japan,33.85
JA000047890,2019,7,26.13,34.283,133.75,5.0,TADOTSU,JA,Japan,34.283
JA000047891,2019,7,26.95,34.317,134.05,10.0,TAKAMATSU,JA,Japan,34.317
JA000047892,2019,7,25.92,33.233,132.55,14.0,UWAJIMA,JA,Japan,33.233
JA000047893,2019,7,26.3,33.567,133.55,5.0,KOCHI,JA,Japan,33.567
JA000047895,2019,7,26.25,34.067,134.567,6.0,TOKUSHIMA,JA,Japan,34.067
JA000047897,2019,7,25.77,32.917,132.7,11.0,SUKUMO,JA,Japan,32.917
JA000047898,2019,7,25.66,32.717,133.017,33.0,SHIMIZU,JA,Japan,32.717
JA000047899,2019,7,24.17,33.25,134.183,186.0,MUROTOMISAKI,JA,Japan,33.25
JA000047909,2019,7,28.8,28.383,129.5,8.0,NAZE,JA,Japan,28.383
JA000047927,2019,7,30.14,24.817,125.133,16.0,SHIMOJISHIMA,JA,Japan,24.817
JA000047929,2019,7,28.89,26.333,126.8,5.0,KUMEJIMA,JA,Japan,26.333
JA000047936,2019,7,29.15,26.2,127.683,53.0,NAHA,JA,Japan,26.2
JA000047940,2019,7,28.83,26.6,127.967,7.0,NAGO,JA,Japan,26.6
JA000047942,2019,7,28.35,27.033,128.4,16.0,YORON,JA,Japan,27.033
JA000047945,2019,7,28.86,25.933,131.317,24.0,KITADAITO,JA,Japan,25.933
JA000047991,2019,7,29.7,24.3,153.967,6.1,MINAMI_TORI_SHIMA_MA,JA,Japan,24.3
JAM00047772,2019,7,27.1,34.683,135.517,83.0,OSAKA,JA,Japan,34.683
JAM00047918,2019,7,30.1,24.345,124.187,28.3,ISHIGAKI,JA,Japan,24.345
JAM00047927,2019,7,29.35,24.783,125.295,45.7,MIYAKO,JA,Japan,24.783
JAM00047945,2019,7,28.7,25.847,131.263,50.9,MINAMI_DAITO,JA,Japan,25.847
JAW00042402,2019,7,28.25,27.0833,142.2,8.2,CHICHI_JIMA_BONIN_IS,JA,Japan,27.0833
JA000047401,2019,8,18.5,45.417,141.683,12.0,WAKKANAI,JA,Japan,45.417
JA000047402,2019,8,18.14,44.933,142.583,8.0,KITAMIESASHI,JA,Japan,44.933
JA000047404,2019,8,20.89,44.367,141.7,10.0,HABORO,JA,Japan,44.367
JA000047405,2019,8,18.19,44.583,142.967,15.0,OMU,JA,Japan,44.583
JA000047406,2019,8,20.88,43.95,141.633,28.0,RUMOI,JA,Japan,43.95
JA000047407,2019,8,21.6,43.767,142.367,116.0,ASAHIKAWA,JA,Japan,43.767
JA000047409,2019,8,19.25,44.017,144.283,43.0,ABASHIRI,JA,Japan,44.017
JA000047411,2019,8,21.87,43.183,141.017,26.0,OTARU,JA,Japan,43.183
JA000047412,2019,8,23.1,43.067,141.333,26.0,SAPPORO,JA,Japan,43.067
JA000047413,2019,8,21.36,43.217,141.783,51.0,IWAMIZAWA,JA,Japan,43.217
JA000047417,2019,8,20.21,42.917,143.217,43.0,OBIHIRO,JA,Japan,42.917
JA000047418,2019,8,18.9,42.95,144.433,16.0,KUSHIRO,JA,Japan,42.95
JA000047420,2019,8,17.8,43.333,145.583,39.0,NEMURO,JA,Japan,43.333
JA000047421,2019,8,21.8,42.8,140.217,38.0,SUTTSU,JA,Japan,42.8
JA000047423,2019,8,20.76,42.317,140.983,49.0,MURORAN,JA,Japan,42.317
JA000047424,2019,8,20.86,42.617,141.55,11.0,TOMAKOMAI,JA,Japan,42.617
JA000047426,2019,8,20.4,42.167,142.783,37.0,URAKAWA,JA,Japan,42.167
JA000047428,2019,8,22.83,41.867,140.117,12.0,ESASHI,JA,Japan,41.867
JA000047430,2019,8,22.85,41.817,140.75,43.0,HAKODATE,JA,Japan,41.817
JA000047433,2019,8,20.75,42.9,140.75,188.0,KUTCHAN,JA,Japan,42.9
JA000047435,2019,8,18.59,44.35,143.35,16.0,MOMBETSU,JA,Japan,44.35
JA000047440,2019,8,18.87,42.3,143.317,33.0,HIROO,JA,Japan,42.3
JA000047512,2019,8,24.77,39.067,141.717,41.0,OFUNATO,JA,Japan,39.067
JA000047520,2019,8,25.66,38.75,140.317,102.0,SHINJO,JA,Japan,38.75
JA000047570,2019,8,27.8,37.483,139.917,213.0,WAKAMATSU,JA,Japan,37.483
JA000047574,2019,8,24.02,40.65,139.933,67.0,FUKAURA,JA,Japan,40.65
JA000047575,2019,8,25.6,40.817,140.767,3.0,AOMORI,JA,Japan,40.817
JA000047576,2019,8,22.6,41.283,141.217,5.0,MUTSU,JA,Japan,41.283
JA000047581,2019,8,23.54,40.533,141.517,28.0,HACHINOHE,JA,Japan,40.533
JA000047582,2019,8,26.85,39.717,140.1,7.0,AKITA,JA,Japan,39.717
JA000047584,2019,8,26.05,39.7,141.167,155.0,MORIOKA,JA,Japan,39.7
JA000047585,2019,8,23.15,39.65,141.967,46.0,MIYAKO,JA,Japan,39.65
JA000047587,2019,8,27.53,38.8,139.783,26.0,SHONAI,JA,Japan,38.8
JA000047588,2019,8,26.63,38.25,140.35,153.0,YAMAGATA,JA,Japan,38.25
JA000047590,2019,8,26.7,38.267,140.9,43.0,SENDAI,JA,Japan,38.267
JA000047592,2019,8,25.31,38.433,141.3,43.0,ISHINOMAKI,JA,Japan,38.433
JA000047597,2019,8,25.17,37.133,140.217,357.0,SHIRAKAWA,JA,Japan,37.133
JA000047598,2019,8,25.74,36.95,140.9,5.0,ONAHAMA,JA,Japan,36.95
JA000047600,2019,8,27.15,37.4,136.9,15.0,WAJIMA,JA,Japan,37.4
JA000047602,2019,8,26.87,38.033,138.233,17.0,AIKAWA,JA,Japan,38.033
JA000047604,2019,8,28.05,37.917,139.05,6.0,NIIGATA,JA,Japan,37.917
JA000047605,2019,8,28.8,36.583,136.633,33.0,KANAZAWA,JA,Japan,36.583
JA000047606,2019,8,27.6,36.8,137.05,13.0,FUSHIKI,JA,Japan,36.8
JA000047607,2019,8,27.87,36.717,137.2,17.0,TOYAMA,JA,Japan,36.717
JA000047610,2019,8,27.5,36.667,138.2,419.0,NAGANO,JA,Japan,36.667
JA000047612,2019,8,27.5,37.1,138.25,18.0,TAKADA,JA,Japan,37.1
JA000047615,2019,8,27.38,36.55,139.867,140.0,UTSUNOMIYA,JA,Japan,36.55
JA000047616,2019,8,28.17,36.05,136.217,17.0,FUKUI,JA,Japan,36.05
JA000047617,2019,8,25.39,36.15,137.25,561.0,TAKAYAMA,JA,Japan,36.15
JA000047618,2019,8,25.9,36.25,137.967,611.0,MATSUMOTO,JA,Japan,36.25
JA000047620,2019,8,24.92,36.05,138.117,762.0,SUWA,JA,Japan,36.05
JA000047622,2019,8,21.84,36.35,138.55,1004.0,KARUIZAWA,JA,Japan,36.35
JA000047624,2019,8,29.05,36.4,139.067,113.0,MAEBASHI,JA,Japan,36.4
JA000047626,2019,8,28.5,36.15,139.383,31.0,KUMAGAYA,JA,Japan,36.15
JA000047629,2019,8,27.85,36.383,140.467,31.0,MITO,JA,Japan,36.383
JA000047631,2019,8,28.51,35.65,136.067,12.0,TSURUGA,JA,Japan,35.65
JA000047632,2019,8,29.11,35.4,136.767,17.0,GIFU,JA,Japan,35.4
JA000047636,2019,8,29.8,35.167,136.967,56.0,NAGOYA,JA,Japan,35.167
JA000047637,2019,8,26.14,35.517,137.817,529.0,IIDA,JA,Japan,35.517
JA000047638,2019,8,27.89,35.667,138.55,281.0,KOFU,JA,Japan,35.667
JA000047640,2019,8,23.71,35.5,138.767,861.0,KAWAGUCHIKO,JA,Japan,35.5
JA000047641,2019,8,26.78,35.983,139.067,234.0,CHICHIBU,JA,Japan,35.983
JA000047648,2019,8,27.1,35.733,140.85,28.0,CHOSHI,JA,Japan,35.733
JA000047649,2019,8,27.46,34.767,136.15,161.0,UENO,JA,Japan,34.767
JA000047651,2019,8,29.0,34.733,136.517,18.0,TSU,JA,Japan,34.733
JA000047653,2019,8,28.03,34.633,137.1,8.0,IRAKO,JA,Japan,34.633
JA000047654,2019,8,28.12,34.717,137.717,33.0,HAMAMATSU,JA,Japan,34.717
JA000047655,2019,8,28.15,34.6,138.217,47.0,OMAEZAKI,JA,Japan,34.6
JA000047656,2019,8,28.63,34.983,138.4,15.0,SHIZUOKA,JA,Japan,34.983
JA000047657,2019,8,28.53,35.117,138.933,22.0,MISHIMA,JA,Japan,35.117
JA000047662,2019,8,29.0,35.683,139.767,36.0,TOKYO,JA,Japan,35.683
JA000047663,2019,8,27.44,34.067,136.2,27.0,OWASE,JA,Japan,34.067
JA000047666,2019,8,27.19,34.6,138.85,56.0,IROZAKI,JA,Japan,34.6
JA000047668,2019,8,27.54,35.05,139.1,68.0,AJIRO,JA,Japan,35.05
JA000047670,2019,8,28.37,35.433,139.65,42.0,YOKOHAMA,JA,Japan,35.433
JA000047672,2019,8,27.92,34.983,139.867,7.0,TATEYAMA,JA,Japan,34.983
JA000047674,2019,8,26.86,35.15,140.317,13.0,KATSUURA,JA,Japan,35.15
JA000047675,2019,8,27.7,34.75,139.383,79.0,OSHIMA,JA,Japan,34.75
JA000047677,2019,8,27.63,34.117,139.517,37.0,MIYAKEJIMA,JA,Japan,34.117
JA000047678,2019,8,27.85,33.117,139.783,80.0,HACHIJOJIMA,JA,Japan,33.117
JA000047682,2019,8,28.46,35.6,140.1,19.0,CHIBA,JA,Japan,35.6
JA000047684,2019,8,27.35,34.933,136.583,56.0,YOKKAICHI,JA,Japan,34.933
JA000047690,2019,8,19.87,36.733,139.5,1294.0,NIKKO,JA,Japan,36.733
JA000047740,2019,8,26.75,36.2,133.333,31.0,SAIGO,JA,Japan,36.2
JA000047741,2019,8,28.15,35.45,133.067,23.0,MATSUE,JA,Japan,35.45
JA000047742,2019,8,27.58,35.55,133.233,3.0,SAKAI,JA,Japan,35.55
JA000047744,2019,8,27.88,35.433,133.333,9.0,YONAGO,JA,Japan,35.433
JA000047746,2019,8,28.9,35.483,134.233,16.0,TOTTORI,JA,Japan,35.483
JA000047747,2019,8,28.62,35.5,134.783,183.0,TAJIMA,JA,Japan,35.5
JA000047750,2019,8,28.7,35.45,135.333,30.0,MAIZURU_REG_MET_HQ,JA,Japan,35.45
JA000047754,2019,8,28.04,34.683,131.783,57.0,IWAMI_AIRPORT,JA,Japan,34.683
JA000047755,2019,8,27.23,34.9,132.067,20.0,HAMADA,JA,Japan,34.9
JA000047756,2019,8,26.6,35.067,134.017,147.0,TSUYAMA,JA,Japan,35.067
JA000047759,2019,8,29.16,35.017,135.733,46.0,KYOTO,JA,Japan,35.017
JA000047761,2019,8,28.27,35.283,136.25,89.0,HIKONE,JA,Japan,35.283
JA000047762,2019,8,27.71,33.95,130.933,19.0,SHIMONOSEKI,JA,Japan,33.95
JA000047765,2019,8,28.85,34.4,132.467,53.0,HIROSHIMA,JA,Japan,34.4
JA000047767,2019,8,27.81,34.45,133.25,3.0,FUKUYAMA,JA,Japan,34.45
JA000047768,2019,8,28.2,34.667,133.917,18.0,OKAYAMA,JA,Japan,34.667
JA000047769,2019,8,28.07,34.833,134.667,40.0,HIMEJI,JA,Japan,34.833
JA000047770,2019,8,28.68,34.7,135.217,30.0,KOBE,JA,Japan,34.7
JA000047772,2019,8,28.12,34.433,135.25,8.0,KANSAI_INTERNATIONA,JA,Japan,34.433
JA000047776,2019,8,27.51,34.333,134.9,112.0,SUMOTO,JA,Japan,34.333
JA000047777,2019,8,28.44,34.233,135.167,18.0,WAKAYAMA,JA,Japan,34.233
JA000047778,2019,8,27.25,33.45,135.75,76.0,SHIONOMISAKI,JA,Japan,33.45
JA000047780,2019,8,28.22,34.7,135.833,106.0,NARA,JA,Japan,34.7
JA000047784,2019,8,27.28,34.167,131.45,18.0,YAMAGUCHI,JA,Japan,34.167
JA000047800,2019,8,27.3,34.2,129.3,19.0,IZUHARA,JA,Japan,34.2
JA000047805,2019,8,26.1,33.367,129.55,59.0,HIRADO,JA,Japan,33.367
JA000047807,2019,8,28.55,33.583,130.383,15.0,FUKUOKA,JA,Japan,33.583
JA000047809,2019,8,26.96,33.65,130.699,38.0,IIZUKA,JA,Japan,33.65
JA000047813,2019,8,27.81,33.267,130.3,32.0,SAGA,JA,Japan,33.267
JA000047814,2019,8,26.97,33.317,130.933,84.0,HITA,JA,Japan,33.317
JA000047815,2019,8,27.6,33.233,131.617,13.0,OITA,JA,Japan,33.233
JA000047817,2019,8,28.05,32.732,129.866,35.0,NAGASAKI,JA,Japan,32.732
JA000047819,2019,8,27.7,32.817,130.699,39.0,KUMAMOTO,JA,Japan,32.817
JA000047822,2019,8,26.52,32.583,131.65,21.0,NOBEOKA,JA,Japan,32.583
JA000047823,2019,8,27.03,32.033,130.199,45.0,AKUNE,JA,Japan,32.033
JA000047824,2019,8,26.31,32.217,130.75,147.0,HITOYOSHI,JA,Japan,32.217
JA000047827,2019,8,29.2,31.55,130.55,32.0,KAGOSHIMA,JA,Japan,31.55
JA000047829,2019,8,27.02,31.733,131.083,156.0,MIYAKONOJO,JA,Japan,31.733
JA000047830,2019,8,27.8,31.933,131.417,15.0,MIYAZAKI,JA,Japan,31.933
JA000047831,2019,8,28.18,31.267,130.3,31.0,MAKURAZAKI,JA,Japan,31.267
JA000047835,2019,8,27.5,31.583,131.4,15.0,ABURATSU,JA,Japan,31.583
JA000047836,2019,8,27.7,30.383,130.667,38.0,YAKUSHIMA,JA,Japan,30.383
JA000047837,2019,8,28.1,30.733,130.983,18.0,TANEGASHIMA,JA,Japan,30.733
JA000047838,2019,8,27.95,31.717,130.032,14.0,USHIBUKA,JA,Japan,31.717
JA000047843,2019,8,27.35,32.7,128.833,26.0,FUKUE,JA,Japan,32.7
JA000047887,2019,8,28.25,33.85,132.783,34.0,MATSUYAMA,JA,Japan,33.85
JA000047890,2019,8,28.18,34.283,133.75,5.0,TADOTSU,JA,Japan,34.283
JA000047891,2019,8,28.85,34.317,134.05,10.0,TAKAMATSU,JA,Japan,34.317
JA000047892,2019,8,27.39,33.233,132.55,14.0,UWAJIMA,JA,Japan,33.233
JA000047893,2019,8,28.0,33.567,133.55,5.0,KOCHI,JA,Japan,33.567
JA000047895,2019,8,28.55,34.067,134.567,6.0,TOKUSHIMA,JA,Japan,34.067
JA000047897,2019,8,27.24,32.917,132.7,11.0,SUKUMO,JA,Japan,32.917
JA000047898,2019,8,27.2,32.717,133.017,33.0,SHIMIZU,JA,Japan,32.717
JA000047899,2019,8,25.9,33.25,134.183,186.0,MUROTOMISAKI,JA,Japan,33.25
JA000047909,2019,8,29.2,28.383,129.5,8.0,NAZE,JA,Japan,28.383
JA000047927,2019,8,29.79,24.817,125.133,16.0,SHIMOJISHIMA,JA,Japan,24.817
JA000047929,2019,8,29.11,26.333,126.8,5.0,KUMEJIMA,JA,Japan,26.333
JA000047936,2019,8,29.55,26.2,127.683,53.0,NAHA,JA,Japan,26.2
JA000047940,2019,8,29.2,26.6,127.967,7.0,NAGO,JA,Japan,26.6
JA000047942,2019,8,28.76,27.033,128.4,16.0,YORON,JA,Japan,27.033
JA000047945,2019,8,29.19,25.933,131.317,24.0,KITADAITO,JA,Japan,25.933
JA000047991,2019,8,29.1,24.3,153.967,6.1,MINAMI_TORI_SHIMA_MA,JA,Japan,24.3
JAM00047772,2019,8,29.95,34.683,135.517,83.0,OSAKA,JA,Japan,34.683
JAM00047918,2019,8,29.85,24.345,124.187,28.3,ISHIGAKI,JA,Japan,24.345
JAM00047927,2019,8,29.0,24.783,125.295,45.7,MIYAKO,JA,Japan,24.783
JAM00047945,2019,8,29.25,25.847,131.263,50.9,MINAMI_DAITO,JA,Japan,25.847
JAW00042402,2019,8,28.25,27.0833,142.2,8.2,CHICHI_JIMA_BONIN_IS,JA,Japan,27.0833
JA000047401,2019,9,17.95,45.417,141.683,12.0,WAKKANAI,JA,Japan,45.417
JA000047402,2019,9,17.36,44.933,142.583,8.0,KITAMIESASHI,JA,Japan,44.933
JA000047404,2019,9,17.97,44.367,141.7,10.0,HABORO,JA,Japan,44.367
JA000047405,2019,9,16.85,44.583,142.967,15.0,OMU,JA,Japan,44.583
JA000047406,2019,9,17.63,43.95,141.633,28.0,RUMOI,JA,Japan,43.95
JA000047407,2019,9,17.05,43.767,142.367,116.0,ASAHIKAWA,JA,Japan,43.767
JA000047409,2019,9,17.65,44.017,144.283,43.0,ABASHIRI,JA,Japan,44.017
JA000047411,2019,9,18.57,43.183,141.017,26.0,OTARU,JA,Japan,43.183
JA000047412,2019,9,19.7,43.067,141.333,26.0,SAPPORO,JA,Japan,43.067
JA000047413,2019,9,17.73,43.217,141.783,51.0,IWAMIZAWA,JA,Japan,43.217
JA000047417,2019,9,17.63,42.917,143.217,43.0,OBIHIRO,JA,Japan,42.917
JA000047418,2019,9,17.25,42.95,144.433,16.0,KUSHIRO,JA,Japan,42.95
JA000047420,2019,9,18.0,43.333,145.583,39.0,NEMURO,JA,Japan,43.333
JA000047421,2019,9,18.55,42.8,140.217,38.0,SUTTSU,JA,Japan,42.8
JA000047423,2019,9,18.99,42.317,140.983,49.0,MURORAN,JA,Japan,42.317
JA000047424,2019,9,18.4,42.617,141.55,11.0,TOMAKOMAI,JA,Japan,42.617
JA000047426,2019,9,18.7,42.167,142.783,37.0,URAKAWA,JA,Japan,42.167
JA000047428,2019,9,20.36,41.867,140.117,12.0,ESASHI,JA,Japan,41.867
JA000047430,2019,9,19.85,41.817,140.75,43.0,HAKODATE,JA,Japan,41.817
JA000047433,2019,9,16.65,42.9,140.75,188.0,KUTCHAN,JA,Japan,42.9
JA000047435,2019,9,17.37,44.35,143.35,16.0,MOMBETSU,JA,Japan,44.35
JA000047440,2019,9,17.48,42.3,143.317,33.0,HIROO,JA,Japan,42.3
JA000047512,2019,9,21.06,39.067,141.717,41.0,OFUNATO,JA,Japan,39.067
JA000047520,2019,9,20.66,38.75,140.317,102.0,SHINJO,JA,Japan,38.75
JA000047570,2019,9,22.55,37.483,139.917,213.0,WAKAMATSU,JA,Japan,37.483
JA000047574,2019,9,20.47,40.65,139.933,67.0,FUKAURA,JA,Japan,40.65
JA000047575,2019,9,21.55,40.817,140.767,3.0,AOMORI,JA,Japan,40.817
JA000047576,2019,9,19.99,41.283,141.217,5.0,MUTSU,JA,Japan,41.283
JA000047581,2019,9,20.76,40.533,141.517,28.0,HACHINOHE,JA,Japan,40.533
JA000047582,2019,9,22.15,39.717,140.1,7.0,AKITA,JA,Japan,39.717
JA000047584,2019,9,20.75,39.7,141.167,155.0,MORIOKA,JA,Japan,39.7
JA000047585,2019,9,20.26,39.65,141.967,46.0,MIYAKO,JA,Japan,39.65
JA000047587,2019,9,23.28,38.8,139.783,26.0,SHONAI,JA,Japan,38.8
JA000047588,2019,9,21.48,38.25,140.35,153.0,YAMAGATA,JA,Japan,38.25
JA000047590,2019,9,22.8,38.267,140.9,43.0,SENDAI,JA,Japan,38.267
JA000047592,2019,9,21.46,38.433,141.3,43.0,ISHINOMAKI,JA,Japan,38.433
JA000047597,2019,9,21.15,37.133,140.217,357.0,SHIRAKAWA,JA,Japan,37.133
JA000047598,2019,9,23.07,36.95,140.9,5.0,ONAHAMA,JA,Japan,36.95
JA000047600,2019,9,23.25,37.4,136.9,15.0,WAJIMA,JA,Japan,37.4
JA000047602,2019,9,23.21,38.033,138.233,17.0,AIKAWA,JA,Japan,38.033
JA000047604,2019,9,23.6,37.917,139.05,6.0,NIIGATA,JA,Japan,37.917
JA000047605,2019,9,25.1,36.583,136.633,33.0,KANAZAWA,JA,Japan,36.583
JA000047606,2019,9,23.99,36.8,137.05,13.0,FUSHIKI,JA,Japan,36.8
JA000047607,2019,9,24.01,36.717,137.2,17.0,TOYAMA,JA,Japan,36.717
JA000047610,2019,9,23.15,36.667,138.2,419.0,NAGANO,JA,Japan,36.667
JA000047612,2019,9,23.29,37.1,138.25,18.0,TAKADA,JA,Japan,37.1
JA000047615,2019,9,23.96,36.55,139.867,140.0,UTSUNOMIYA,JA,Japan,36.55
JA000047616,2019,9,24.86,36.05,136.217,17.0,FUKUI,JA,Japan,36.05
JA000047617,2019,9,21.63,36.15,137.25,561.0,TAKAYAMA,JA,Japan,36.15
JA000047618,2019,9,22.03,36.25,137.967,611.0,MATSUMOTO,JA,Japan,36.25
JA000047620,2019,9,21.33,36.05,138.117,762.0,SUWA,JA,Japan,36.05
JA000047622,2019,9,17.82,36.35,138.55,1004.0,KARUIZAWA,JA,Japan,36.35
JA000047624,2019,9,25.05,36.4,139.067,113.0,MAEBASHI,JA,Japan,36.4
JA000047626,2019,9,24.94,36.15,139.383,31.0,KUMAGAYA,JA,Japan,36.15
JA000047629,2019,9,24.0,36.383,140.467,31.0,MITO,JA,Japan,36.383
JA000047631,2019,9,25.54,35.65,136.067,12.0,TSURUGA,JA,Japan,35.65
JA000047632,2019,9,26.79,35.4,136.767,17.0,GIFU,JA,Japan,35.4
JA000047636,2019,9,27.35,35.167,136.967,56.0,NAGOYA,JA,Japan,35.167
JA000047637,2019,9,23.23,35.517,137.817,529.0,IIDA,JA,Japan,35.517
JA000047638,2019,9,25.31,35.667,138.55,281.0,KOFU,JA,Japan,35.667
JA000047640,2019,9,20.21,35.5,138.767,861.0,KAWAGUCHIKO,JA,Japan,35.5
JA000047641,2019,9,23.02,35.983,139.067,234.0,CHICHIBU,JA,Japan,35.983
JA000047648,2019,9,24.9,35.733,140.85,28.0,CHOSHI,JA,Japan,35.733
JA000047649,2019,9,24.94,34.767,136.15,161.0,UENO,JA,Japan,34.767
JA000047651,2019,9,26.5,34.733,136.517,18.0,TSU,JA,Japan,34.733
JA000047653,2019,9,26.24,34.633,137.1,8.0,IRAKO,JA,Japan,34.633
JA000047654,2019,9,26.33,34.717,137.717,33.0,HAMAMATSU,JA,Japan,34.717
JA000047655,2019,9,26.3,34.6,138.217,47.0,OMAEZAKI,JA,Japan,34.6
JA000047656,2019,9,26.32,34.983,138.4,15.0,SHIZUOKA,JA,Japan,34.983
JA000047657,2019,9,25.84,35.117,138.933,22.0,MISHIMA,JA,Japan,35.117
JA000047662,2019,9,25.55,35.683,139.767,36.0,TOKYO,JA,Japan,35.683
JA000047663,2019,9,25.19,34.067,136.2,27.0,OWASE,JA,Japan,34.067
JA000047666,2019,9,25.38,34.6,138.85,56.0,IROZAKI,JA,Japan,34.6
JA000047668,2019,9,24.71,35.05,139.1,68.0,AJIRO,JA,Japan,35.05
JA000047670,2019,9,25.37,35.433,139.65,42.0,YOKOHAMA,JA,Japan,35.433
JA000047672,2019,9,25.08,34.983,139.867,7.0,TATEYAMA,JA,Japan,34.983
JA000047674,2019,9,24.82,35.15,140.317,13.0,KATSUURA,JA,Japan,35.15
JA000047675,2019,9,25.15,34.75,139.383,79.0,OSHIMA,JA,Japan,34.75
JA000047677,2019,9,25.91,34.117,139.517,37.0,MIYAKEJIMA,JA,Japan,34.117
JA000047678,2019,9,26.15,33.117,139.783,80.0,HACHIJOJIMA,JA,Japan,33.117
JA000047682,2019,9,25.25,35.6,140.1,19.0,CHIBA,JA,Japan,35.6
JA000047684,2019,9,25.29,34.933,136.583,56.0,YOKKAICHI,JA,Japan,34.933
JA000047690,2019,9,16.35,36.733,139.5,1294.0,NIKKO,JA,Japan,36.733
JA000047740,2019,9,23.85,36.2,133.333,31.0,SAIGO,JA,Japan,36.2
JA000047741,2019,9,25.0,35.45,133.067,23.0,MATSUE,JA,Japan,35.45
JA000047742,2019,9,24.8,35.55,133.233,3.0,SAKAI,JA,Japan,35.55
JA000047744,2019,9,24.59,35.433,133.333,9.0,YONAGO,JA,Japan,35.433
JA000047746,2019,9,25.15,35.483,134.233,16.0,TOTTORI,JA,Japan,35.483
JA000047747,2019,9,24.9,35.5,134.783,183.0,TAJIMA,JA,Japan,35.5
JA000047750,2019,9,25.1,35.45,135.333,30.0,MAIZURU_REG_MET_HQ,JA,Japan,35.45
JA000047754,2019,9,25.28,34.683,131.783,57.0,IWAMI_AIRPORT,JA,Japan,34.683
JA000047755,2019,9,24.21,34.9,132.067,20.0,HAMADA,JA,Japan,34.9
JA000047756,2019,9,23.61,35.067,134.017,147.0,TSUYAMA,JA,Japan,35.067
JA000047759,2019,9,26.3,35.017,135.733,46.0,KYOTO,JA,Japan,35.017
JA000047761,2019,9,25.48,35.283,136.25,89.0,HIKONE,JA,Japan,35.283
JA000047762,2019,9,25.59,33.95,130.933,19.0,SHIMONOSEKI,JA,Japan,33.95
JA000047765,2019,9,26.8,34.4,132.467,53.0,HIROSHIMA,JA,Japan,34.4
JA000047767,2019,9,25.61,34.45,133.25,3.0,FUKUYAMA,JA,Japan,34.45
JA000047768,2019,9,25.8,34.667,133.917,18.0,OKAYAMA,JA,Japan,34.667
JA000047769,2019,9,25.44,34.833,134.667,40.0,HIMEJI,JA,Japan,34.833
JA000047770,2019,9,26.96,34.7,135.217,30.0,KOBE,JA,Japan,34.7
JA000047772,2019,9,26.02,34.433,135.25,8.0,KANSAI_INTERNATIONA,JA,Japan,34.433
JA000047776,2019,9,25.33,34.333,134.9,112.0,SUMOTO,JA,Japan,34.333
JA000047777,2019,9,26.45,34.233,135.167,18.0,WAKAYAMA,JA,Japan,34.233
JA000047778,2019,9,25.85,33.45,135.75,76.0,SHIONOMISAKI,JA,Japan,33.45
JA000047780,2019,9,25.69,34.7,135.833,106.0,NARA,JA,Japan,34.7
JA000047784,2019,9,25.36,34.167,131.45,18.0,YAMAGUCHI,JA,Japan,34.167
JA000047800,2019,9,24.3,34.2,129.3,19.0,IZUHARA,JA,Japan,34.2
JA000047805,2019,9,24.38,33.367,129.55,59.0,HIRADO,JA,Japan,33.367
JA000047807,2019,9,26.45,33.583,130.383,15.0,FUKUOKA,JA,Japan,33.583
JA000047809,2019,9,24.75,33.65,130.699,38.0,IIZUKA,JA,Japan,33.65
JA000047813,2019,9,26.12,33.267,130.3,32.0,SAGA,JA,Japan,33.267
JA000047814,2019,9,25.13,33.317,130.933,84.0,HITA,JA,Japan,33.317
JA000047815,2019,9,25.85,33.233,131.617,13.0,OITA,JA,Japan,33.233
JA000047817,2019,9,26.65,32.732,129.866,35.0,NAGASAKI,JA,Japan,32.732
JA000047819,2019,9,26.55,32.817,130.699,39.0,KUMAMOTO,JA,Japan,32.817
JA000047822,2019,9,25.21,32.583,131.65,21.0,NOBEOKA,JA,Japan,32.583
JA000047823,2019,9,25.87,32.033,130.199,45.0,AKUNE,JA,Japan,32.033
JA000047824,2019,9,25.51,32.217,130.75,147.0,HITOYOSHI,JA,Japan,32.217
JA000047827,2019,9,28.4,31.55,130.55,32.0,KAGOSHIMA,JA,Japan,31.55
JA000047829,2019,9,25.63,31.733,131.083,156.0,MIYAKONOJO,JA,Japan,31.733
JA000047830,2019,9,26.3,31.933,131.417,15.0,MIYAZAKI,JA,Japan,31.933
JA000047831,2019,9,27.05,31.267,130.3,31.0,MAKURAZAKI,JA,Japan,31.267
JA000047835,2019,9,26.24,31.583,131.4,15.0,ABURATSU,JA,Japan,31.583
JA000047836,2019,9,26.73,30.383,130.667,38.0,YAKUSHIMA,JA,Japan,30.383
JA000047837,2019,9,27.15,30.733,130.983,18.0,TANEGASHIMA,JA,Japan,30.733
JA000047838,2019,9,26.88,31.717,130.032,14.0,USHIBUKA,JA,Japan,31.717
JA000047843,2019,9,25.15,32.7,128.833,26.0,FUKUE,JA,Japan,32.7
JA000047887,2019,9,26.85,33.85,132.783,34.0,MATSUYAMA,JA,Japan,33.85
JA000047890,2019,9,26.18,34.283,133.75,5.0,TADOTSU,JA,Japan,34.283
JA000047891,2019,9,26.8,34.317,134.05,10.0,TAKAMATSU,JA,Japan,34.317
JA000047892,2019,9,25.84,33.233,132.55,14.0,UWAJIMA,JA,Japan,33.233
JA000047893,2019,9,26.95,33.567,133.55,5.0,KOCHI,JA,Japan,33.567
JA000047895,2019,9,26.65,34.067,134.567,6.0,TOKUSHIMA,JA,Japan,34.067
JA000047897,2019,9,25.84,32.917,132.7,11.0,SUKUMO,JA,Japan,32.917
JA000047898,2019,9,26.56,32.717,133.017,33.0,SHIMIZU,JA,Japan,32.717
JA000047899,2019,9,25.0,33.25,134.183,186.0,MUROTOMISAKI,JA,Japan,33.25
JA000047909,2019,9,28.05,28.383,129.5,8.0,NAZE,JA,Japan,28.383
JA000047927,2019,9,28.09,24.817,125.133,16.0,SHIMOJISHIMA,JA,Japan,24.817
JA000047929,2019,9,27.97,26.333,126.8,5.0,KUMEJIMA,JA,Japan,26.333
JA000047936,2019,9,28.4,26.2,127.683,53.0,NAHA,JA,Japan,26.2
JA000047940,2019,9,27.92,26.6,127.967,7.0,NAGO,JA,Japan,26.6
JA000047942,2019,9,27.33,27.033,128.4,16.0,YORON,JA,Japan,27.033
JA000047945,2019,9,28.94,25.933,131.317,24.0,KITADAITO,JA,Japan,25.933
JA000047991,2019,9,29.15,24.3,153.967,6.1,MINAMI_TORI_SHIMA_MA,JA,Japan,24.3
JAM00047772,2019,9,27.2,34.683,135.517,83.0,OSAKA,JA,Japan,34.683
JAM00047918,2019,9,28.15,24.345,124.187,28.3,ISHIGAKI,JA,Japan,24.345
JAM00047927,2019,9,27.55,24.783,125.295,45.7,MIYAKO,JA,Japan,24.783
JAM00047945,2019,9,28.75,25.847,131.263,50.9,MINAMI_DAITO,JA,Japan,25.847
JAW00042402,2019,9,28.55,27.0833,142.2,8.2,CHICHI_JIMA_BONIN_IS,JA,Japan,27.0833
JA000047401,2019,10,12.25,45.417,141.683,12.0,WAKKANAI,JA,Japan,45.417
JA000047402,2019,10,11.29,44.933,142.583,8.0,KITAMIESASHI,JA,Japan,44.933
JA000047404,2019,10,12.1,44.367,141.7,10.0,HABORO,JA,Japan,44.367
JA000047405,2019,10,10.38,44.583,142.967,15.0,OMU,JA,Japan,44.583
JA000047406,2019,10,12.0,43.95,141.633,28.0,RUMOI,JA,Japan,43.95
JA000047407,2019,10,10.45,43.767,142.367,116.0,ASAHIKAWA,JA,Japan,43.767
JA000047409,2019,10,11.8,44.017,144.283,43.0,ABASHIRI,JA,Japan,44.017
JA000047411,2019,10,12.83,43.183,141.017,26.0,OTARU,JA,Japan,43.183
JA000047412,2019,10,13.2,43.067,141.333,26.0,SAPPORO,JA,Japan,43.067
JA000047413,2019,10,11.67,43.217,141.783,51.0,IWAMIZAWA,JA,Japan,43.217
JA000047417,2019,10,11.14,42.917,143.217,43.0,OBIHIRO,JA,Japan,42.917
JA000047418,2019,10,11.6,42.95,144.433,16.0,KUSHIRO,JA,Japan,42.95
JA000047420,2019,10,12.4,43.333,145.583,39.0,NEMURO,JA,Japan,43.333
JA000047421,2019,10,13.0,42.8,140.217,38.0,SUTTSU,JA,Japan,42.8
JA000047423,2019,10,14.25,42.317,140.983,49.0,MURORAN,JA,Japan,42.317
JA000047424,2019,10,12.56,42.617,141.55,11.0,TOMAKOMAI,JA,Japan,42.617
JA000047426,2019,10,13.5,42.167,142.783,37.0,URAKAWA,JA,Japan,42.167
JA000047428,2019,10,14.84,41.867,140.117,12.0,ESASHI,JA,Japan,41.867
JA000047430,2019,10,13.85,41.817,140.75,43.0,HAKODATE,JA,Japan,41.817
JA000047433,2019,10,10.89,42.9,140.75,188.0,KUTCHAN,JA,Japan,42.9
JA000047435,2019,10,11.29,44.35,143.35,16.0,MOMBETSU,JA,Japan,44.35
JA000047440,2019,10,12.02,42.3,143.317,33.0,HIROO,JA,Japan,42.3
JA000047512,2019,10,15.74,39.067,141.717,41.0,OFUNATO,JA,Japan,39.067
JA000047520,2019,10,14.43,38.75,140.317,102.0,SHINJO,JA,Japan,38.75
JA000047570,2019,10,16.15,37.483,139.917,213.0,WAKAMATSU,JA,Japan,37.483
JA000047574,2019,10,14.65,40.65,139.933,67.0,FUKAURA,JA,Japan,40.65
JA000047575,2019,10,15.1,40.817,140.767,3.0,AOMORI,JA,Japan,40.817
JA000047576,2019,10,14.31,41.283,141.217,5.0,MUTSU,JA,Japan,41.283
JA000047581,2019,10,14.92,40.533,141.517,28.0,HACHINOHE,JA,Japan,40.533
JA000047582,2019,10,16.15,39.717,140.1,7.0,AKITA,JA,Japan,39.717
JA000047584,2019,10,14.15,39.7,141.167,155.0,MORIOKA,JA,Japan,39.7
JA000047585,2019,10,14.67,39.65,141.967,46.0,MIYAKO,JA,Japan,39.65
JA000047587,2019,10,17.28,38.8,139.783,26.0,SHONAI,JA,Japan,38.8
JA000047588,2019,10,15.39,38.25,140.35,153.0,YAMAGATA,JA,Japan,38.25
JA000047590,2019,10,17.0,38.267,140.9,43.0,SENDAI,JA,Japan,38.267
JA000047592,2019,10,16.26,38.433,141.3,43.0,ISHINOMAKI,JA,Japan,38.433
JA000047597,2019,10,15.3,37.133,140.217,357.0,SHIRAKAWA,JA,Japan,37.133
JA000047598,2019,10,18.08,36.95,140.9,5.0,ONAHAMA,JA,Japan,36.95
JA000047600,2019,10,17.6,37.4,136.9,15.0,WAJIMA,JA,Japan,37.4
JA000047602,2019,10,18.16,38.033,138.233,17.0,AIKAWA,JA,Japan,38.033
JA000047604,2019,10,17.5,37.917,139.05,6.0,NIIGATA,JA,Japan,37.917
JA000047605,2019,10,18.9,36.583,136.633,33.0,KANAZAWA,JA,Japan,36.583
JA000047606,2019,10,18.02,36.8,137.05,13.0,FUSHIKI,JA,Japan,36.8
JA000047607,2019,10,17.78,36.717,137.2,17.0,TOYAMA,JA,Japan,36.717
JA000047610,2019,10,17.0,36.667,138.2,419.0,NAGANO,JA,Japan,36.667
JA000047612,2019,10,17.36,37.1,138.25,18.0,TAKADA,JA,Japan,37.1
JA000047615,2019,10,18.15,36.55,139.867,140.0,UTSUNOMIYA,JA,Japan,36.55
JA000047616,2019,10,18.36,36.05,136.217,17.0,FUKUI,JA,Japan,36.05
JA000047617,2019,10,15.42,36.15,137.25,561.0,TAKAYAMA,JA,Japan,36.15
JA000047618,2019,10,15.51,36.25,137.967,611.0,MATSUMOTO,JA,Japan,36.25
JA000047620,2019,10,15.07,36.05,138.117,762.0,SUWA,JA,Japan,36.05
JA000047622,2019,10,12.12,36.35,138.55,1004.0,KARUIZAWA,JA,Japan,36.35
JA000047624,2019,10,19.25,36.4,139.067,113.0,MAEBASHI,JA,Japan,36.4
JA000047626,2019,10,19.16,36.15,139.383,31.0,KUMAGAYA,JA,Japan,36.15
JA000047629,2019,10,18.5,36.383,140.467,31.0,MITO,JA,Japan,36.383
JA000047631,2019,10,19.18,35.65,136.067,12.0,TSURUGA,JA,Japan,35.65
JA000047632,2019,10,20.17,35.4,136.767,17.0,GIFU,JA,Japan,35.4
JA000047636,2019,10,20.8,35.167,136.967,56.0,NAGOYA,JA,Japan,35.167
JA000047637,2019,10,16.76,35.517,137.817,529.0,IIDA,JA,Japan,35.517
JA000047638,2019,10,19.01,35.667,138.55,281.0,KOFU,JA,Japan,35.667
JA000047640,2019,10,14.67,35.5,138.767,861.0,KAWAGUCHIKO,JA,Japan,35.5
JA000047641,2019,10,17.41,35.983,139.067,234.0,CHICHIBU,JA,Japan,35.983
JA000047648,2019,10,20.6,35.733,140.85,28.0,CHOSHI,JA,Japan,35.733
JA000047649,2019,10,18.41,34.767,136.15,161.0,UENO,JA,Japan,34.767
JA000047651,2019,10,20.75,34.733,136.517,18.0,TSU,JA,Japan,34.733
JA000047653,2019,10,20.7,34.633,137.1,8.0,IRAKO,JA,Japan,34.633
JA000047654,2019,10,21.07,34.717,137.717,33.0,HAMAMATSU,JA,Japan,34.717
JA000047655,2019,10,21.55,34.6,138.217,47.0,OMAEZAKI,JA,Japan,34.6
JA000047656,2019,10,20.88,34.983,138.4,15.0,SHIZUOKA,JA,Japan,34.983
JA000047657,2019,10,20.12,35.117,138.933,22.0,MISHIMA,JA,Japan,35.117
JA000047662,2019,10,19.85,35.683,139.767,36.0,TOKYO,JA,Japan,35.683
JA000047663,2019,10,20.33,34.067,136.2,27.0,OWASE,JA,Japan,34.067
JA000047666,2019,10,21.14,34.6,138.85,56.0,IROZAKI,JA,Japan,34.6
JA000047668,2019,10,19.93,35.05,139.1,68.0,AJIRO,JA,Japan,35.05
JA000047670,2019,10,19.77,35.433,139.65,42.0,YOKOHAMA,JA,Japan,35.433
JA000047672,2019,10,20.19,34.983,139.867,7.0,TATEYAMA,JA,Japan,34.983
JA000047674,2019,10,20.52,35.15,140.317,13.0,KATSUURA,JA,Japan,35.15
JA000047675,2019,10,20.4,34.75,139.383,79.0,OSHIMA,JA,Japan,34.75
JA000047677,2019,10,22.5,34.117,139.517,37.0,MIYAKEJIMA,JA,Japan,34.117
JA000047678,2019,10,22.7,33.117,139.783,80.0,HACHIJOJIMA,JA,Japan,33.117
JA000047682,2019,10,20.03,35.6,140.1,19.0,CHIBA,JA,Japan,35.6
JA000047684,2019,10,19.15,34.933,136.583,56.0,YOKKAICHI,JA,Japan,34.933
JA000047690,2019,10,11.32,36.733,139.5,1294.0,NIKKO,JA,Japan,36.733
JA000047740,2019,10,18.1,36.2,133.333,31.0,SAIGO,JA,Japan,36.2
JA000047741,2019,10,18.75,35.45,133.067,23.0,MATSUE,JA,Japan,35.45
JA000047742,2019,10,18.9,35.55,133.233,3.0,SAKAI,JA,Japan,35.55
JA000047744,2019,10,18.51,35.433,133.333,9.0,YONAGO,JA,Japan,35.433
JA000047746,2019,10,18.85,35.483,134.233,16.0,TOTTORI,JA,Japan,35.483
JA000047747,2019,10,18.36,35.5,134.783,183.0,TAJIMA,JA,Japan,35.5
JA000047750,2019,10,18.7,35.45,135.333,30.0,MAIZURU_REG_MET_HQ,JA,Japan,35.45
JA000047754,2019,10,19.95,34.683,131.783,57.0,IWAMI_AIRPORT,JA,Japan,34.683
JA000047755,2019,10,18.66,34.9,132.067,20.0,HAMADA,JA,Japan,34.9
JA000047756,2019,10,17.38,35.067,134.017,147.0,TSUYAMA,JA,Japan,35.067
JA000047759,2019,10,19.85,35.017,135.733,46.0,KYOTO,JA,Japan,35.017
JA000047761,2019,10,19.28,35.283,136.25,89.0,HIKONE,JA,Japan,35.283
JA000047762,2019,10,20.52,33.95,130.933,19.0,SHIMONOSEKI,JA,Japan,33.95
JA000047765,2019,10,20.75,34.4,132.467,53.0,HIROSHIMA,JA,Japan,34.4
JA000047767,2019,10,19.39,34.45,133.25,3.0,FUKUYAMA,JA,Japan,34.45
JA000047768,2019,10,19.61,34.667,133.917,18.0,OKAYAMA,JA,Japan,34.667
JA000047769,2019,10,19.46,34.833,134.667,40.0,HIMEJI,JA,Japan,34.833
JA000047770,2019,10,21.04,34.7,135.217,30.0,KOBE,JA,Japan,34.7
JA000047772,2019,10,21.04,34.433,135.25,8.0,KANSAI_INTERNATIONA,JA,Japan,34.433
JA000047776,2019,10,19.66,34.333,134.9,112.0,SUMOTO,JA,Japan,34.333
JA000047777,2019,10,20.58,34.233,135.167,18.0,WAKAYAMA,JA,Japan,34.233
JA000047778,2019,10,22.05,33.45,135.75,76.0,SHIONOMISAKI,JA,Japan,33.45
JA000047780,2019,10,19.14,34.7,135.833,106.0,NARA,JA,Japan,34.7
JA000047784,2019,10,19.05,34.167,131.45,18.0,YAMAGUCHI,JA,Japan,34.167
JA000047800,2019,10,19.75,34.2,129.3,19.0,IZUHARA,JA,Japan,34.2
JA000047805,2019,10,19.85,33.367,129.55,59.0,HIRADO,JA,Japan,33.367
JA000047807,2019,10,20.85,33.583,130.383,15.0,FUKUOKA,JA,Japan,33.583
JA000047809,2019,10,18.95,33.65,130.699,38.0,IIZUKA,JA,Japan,33.65
JA000047813,2019,10,20.39,33.267,130.3,32.0,SAGA,JA,Japan,33.267
JA000047814,2019,10,19.13,33.317,130.933,84.0,HITA,JA,Japan,33.317
JA000047815,2019,10,21.0,33.233,131.617,13.0,OITA,JA,Japan,33.233
JA000047817,2019,10,21.3,32.732,129.866,35.0,NAGASAKI,JA,Japan,32.732
JA000047819,2019,10,20.75,32.817,130.699,39.0,KUMAMOTO,JA,Japan,32.817
JA000047822,2019,10,20.71,32.583,131.65,21.0,NOBEOKA,JA,Japan,32.583
JA000047823,2019,10,21.09,32.033,130.199,45.0,AKUNE,JA,Japan,32.033
JA000047824,2019,10,19.52,32.217,130.75,147.0,HITOYOSHI,JA,Japan,32.217
JA000047827,2019,10,23.5,31.55,130.55,32.0,KAGOSHIMA,JA,Japan,31.55
JA000047829,2019,10,20.74,31.733,131.083,156.0,MIYAKONOJO,JA,Japan,31.733
JA000047830,2019,10,22.15,31.933,131.417,15.0,MIYAZAKI,JA,Japan,31.933
JA000047831,2019,10,21.99,31.267,130.3,31.0,MAKURAZAKI,JA,Japan,31.267
JA000047835,2019,10,22.12,31.583,131.4,15.0,ABURATSU,JA,Japan,31.583
JA000047836,2019,10,23.09,30.383,130.667,38.0,YAKUSHIMA,JA,Japan,30.383
JA000047837,2019,10,23.41,30.733,130.983,18.0,TANEGASHIMA,JA,Japan,30.733
JA000047838,2019,10,22.07,31.717,130.032,14.0,USHIBUKA,JA,Japan,31.717
JA000047843,2019,10,20.45,32.7,128.833,26.0,FUKUE,JA,Japan,32.7
JA000047887,2019,10,21.1,33.85,132.783,34.0,MATSUYAMA,JA,Japan,33.85
JA000047890,2019,10,20.58,34.283,133.75,5.0,TADOTSU,JA,Japan,34.283
