locationid,latitude,longitude,stnelev,station,countryid
ACW00011604,57.7667,11.8667,18.0,SAVE,AC
AE000041196,25.333,55.517,34.0,SHARJAH_INTER_AIRP,AE
AEM00041184,25.617,55.933,31.0,RAS_AL_KHAIMAH_INTE,AE
AEM00041194,25.255,55.364,10.4,DUBAI_INTL,AE
AEM00041216,24.43,54.47,3.0,ABU_DHABI_BATEEN_AIR,AE
AEM00041217,24.433,54.651,26.8,ABU_DHABI_INTL,AE
AEM00041218,24.262,55.609,264.9,AL_AIN_INTL,AE
AF000040930,35.317,69.017,3366.0,NORTH_SALANG,AF
AFM00040911,36.7,67.2,378.0,MAZAR_I_SHARIF,AF
AFM00040938,34.21,62.228,977.2,HERAT,AF
AFM00040948,34.566,69.212,1791.3,KABUL_INTL,AF
AFM00040990,31.5,65.85,1010.0,KANDAHAR_AIRPORT,AF
AFXLT299877,34.5,65.3,2230.0,CHAKHCHARAN,AF
AG000060390,36.7167,3.25,24.0,ALGER_DAR_EL_BEIDA,AG
AG000060590,30.5667,2.8667,397.0,EL_GOLEA,AG
AG000060611,28.05,9.6331,561.0,IN_AMENAS,AG
AG000060680,22.8,5.4331,1362.0,TAMANRASSET,AG
AGE00135039,35.7297,-0.65,50.0,ORAN_HOPITAL_MILITAIRE,AG
AGE00147704,36.97,7.79,161.0,ANNABA_CAP_DE_GARDE,AG
AGE00147705,36.78,3.07,59.0,ALGIERS_VILLE_UNIVERSITE,AG
AGE00147706,36.8,3.03,344.0,ALGIERS_BOUZAREAH,AG
AGE00147707,36.8,3.04,38.0,ALGIERS_CAP_CAXINE,AG
AGE00147708,36.72,4.05,222.0,TIZI_OUZOU,AG
AGE00147709,36.63,4.2,942.0,FORT_NATIONAL,AG
AGE00147710,36.75,5.1,9.0,BEJAIA_BOUGIE_PORT,AG
AGE00147711,36.3697,6.62,660.0,CONSTANTINE,AG
AGE00147712,36.17,1.34,112.0,ORLEANSVILLE_CHLEF,AG
AGE00147713,36.18,5.4,1081.0,SETIF,AG
AGE00147714,35.77,0.8,78.0,ORAN_CAP_FALCON,AG
AGE00147715,35.42,8.1197,863.0,TEBESSA,AG
AGE00147716,35.1,-1.85,83.0,NEMOURS_GHAZAOUET,AG
AGE00147718,34.85,5.72,125.0,BISKRA,AG
AGE00147719,33.7997,2.89,767.0,LAGHOUAT,AG
AGE00147720,33.68,1.0,1320.0,GERYVILLE_EL_BAYADH,AG
AGM00060351,36.795,5.874,11.0,JIJEL,AG
AGM00060353,36.817,5.883,6.0,JIJEL_PORT,AG
AGM00060355,36.933,6.95,7.0,SKIKDA,AG
AGM00060360,36.822,7.809,4.9,ANNABA,AG
AGM00060367,36.9,8.45,13.0,EL_KALA,AG
AGM00060369,36.767,3.1,12.0,ALGER_PORT,AG
AGM00060387,36.917,3.95,8.0,DELLYS,AG
AGM00060402,36.712,5.07,6.1,SOUMMAM,AG
AGM00060403,36.467,7.467,228.0,GUELMA,AG
AGM00060405,36.5,7.717,111.0,BOUCHEGOUF,AG
AGM00060410,36.5,1.333,18.0,TENES,AG
AGM00060415,36.317,3.533,748.0,AIN_BESSAM,AG
AGM00060417,36.383,3.883,560.0,BOUIRA,AG
AGM00060419,36.276,6.62,690.4,MOHAMED_BOUDIAF_INTL,AG
AGM00060421,35.867,7.117,891.0,OUM_EL_BOUAGHI,AG
AGM00060423,36.283,7.967,680.0,SOUK_AHRAS,AG
AGM00060425,36.213,1.332,141.1,ECH_CHELIFF,AG
AGM00060430,36.3,2.233,721.0,MILIANA,AG
AGM00060437,36.283,2.733,1036.0,MEDEA,AG
AGM00060444,36.067,4.767,930.0,BORDJ_BOU_ARRERIDJ,AG
AGM00060445,36.178,5.324,1050.0,SETIF_AIN_ARNAT,AG
AGM00060452,35.817,-0.267,4.0,ARZEW,AG
AGM00060457,35.883,0.117,138.0,MOSTAGANEM,AG
AGM00060461,35.7,-0.65,22.0,ORAN_PORT,AG
AGM00060467,35.667,4.5,442.0,M'SILA,AG
AGM00060468,35.55,6.183,1052.0,BATNA,AG
AGM00060475,35.432,8.121,811.1,CHEIKH_LARBI_TEBESSI,AG
AGM00060476,35.467,7.083,987.0,KHENCHELLA,AG
AGM00060490,35.624,-0.621,89.9,ES_SENIA,AG
AGM00060506,35.6,0.3,476.0,MASCARA_MATEMORE,AG
AGM00060507,35.208,0.147,513.9,GHRISS,AG
AGM00060511,35.341,1.463,989.1,BOU_CHEKIF,AG
AGM00060514,35.167,2.317,801.0,KSAR_CHELLALA,AG
AGM00060515,35.333,4.206,459.0,BOU_SAADA,AG
AGM00060518,35.3,-1.35,70.0,BENI_SAF,AG
AGM00060520,35.2,-0.617,476.0,SIDI_BEL_ABBES,AG
AGM00060522,34.82,-1.77,426.0,MAGHNIA,AG
AGM00060531,35.017,-1.45,248.1,ZENATA,AG
AGM00060535,34.683,3.25,1144.0,DJELFA_TLETSI,AG
AGM00060536,34.867,0.15,752.0,SAIDA,AG
AGM00060540,34.15,0.067,1001.0,EL_KHEITER,AG
AGM00060549,33.536,-0.242,1175.0,MECHERIA,AG
AGM00060550,33.667,1.0,1347.0,EL_BAYADH,AG
AGM00060555,33.068,6.089,85.0,SIDI_MAHDI,AG
AGM00060557,33.267,-0.3,1166.0,NAAMA,AG
AGM00060559,33.511,6.777,61.9,GUEMAR,AG
AGM00060560,32.767,-0.6,1059.0,AIN_SEFRA,AG
AGM00060563,32.933,3.283,764.0,HASSIR'MEL,AG
AGM00060566,32.384,3.794,460.9,NOUMERAT,AG
AGM00060571,31.646,-2.27,811.1,BECHAR,AG
AGM00060580,31.917,5.413,150.0,OUARGLA,AG
AGM00060581,31.673,6.14,141.1,OUED_IRARA,AG
AGM00060602,30.133,-2.167,505.0,BENI_ABBES,AG
AGM00060603,29.717,6.7,252.0,RHOURD_NOUSS,AG
AGM00060607,29.237,0.276,313.0,TIMIMOUN,AG
AGM00060620,27.838,-0.186,280.1,TOUAT_CHEIKH_SIDI_MOHAMED_BEL,AG
AGM00060630,27.233,2.5,269.0,IN_SALAH,AG
AGM00060640,26.724,8.623,541.9,ILLIZI_TAKHAMALT,AG
AGM00060656,27.7,-8.167,442.9,TINDOUF,AG
AGM00060670,24.293,9.452,968.0,TISKA,AG
AGM00060686,21.333,0.95,399.0,BORDJ_BADJ_MOKHTAR,AG
AGM00060690,19.567,5.767,401.0,IN_GUEZZAM,AG
AGXLT074658,27.88,-0.28,263.0,ADRAR,AG
AGXLT104989,33.12,6.13,85.0,TOUGGOURT,AG
AGXLT146043,31.7,2.9,398.0,HASSI_MESSOUD,AG
AGXLT191914,35.3,0.2,511.0,MASCARA_GRISS_ALGERIA,AG
AGXLT199075,36.5,6.5,9999.0,SKIKDA,AG
AGXLT247289,35.75,6.3167,826.0,BATNA,AG
AGXLT305380,33.5,6.12,63.0,EL_OUED,AG
AGXLT391176,35.3,1.4,68.0,BENI_SAF_ALGERIA,AG
AGXLT477883,32.4,3.8,520.0,GHARDAIA,AG
AGXLT544396,33.5,3.7,41.0,AYATA,AG
AGXLT602246,24.55,9.47,1054.0,DJANET,AG
AGXLT750989,27.0,1.1,290.0,AOULEF_ALGERIA,AG
AGXLT818652,35.1,1.9,83.0,GHAZAOUETAL,AG
AGXLT830065,34.8,-1.3,9999.0,TLEMCEN,AG
AGXLT898158,26.5,8.42,544.0,ILLIZI,AG
AGXLT952400,33.4,3.8,69.0,TOUGGOURT,AG
AGXLT990706,36.8,5.0,22.0,BEJAIA,AG
AJ000037575,41.55,46.667,490.0,ZAKATALA,AJ
AJ000037661,41.217,47.167,641.0,SHAKI,AJ
AJ000037675,41.367,48.517,552.0,GUBA,AJ
AJ000037735,40.7167,46.4167,311.0,GANCA,AJ
AJ000037747,40.617,47.15,15.0,EVLAKH_AIRPORT,AJ
AJ000037749,40.65,47.75,95.0,GOYCHAY,AJ
AJ000037756,40.533,48.933,755.0,MARAZA,AJ
AJ000037860,40.533,50.0,28.0,MASHTAGA,AJ
AJ000037907,39.6,47.15,439.0,FIZULY,AJ
AJ000037936,39.2,45.417,885.0,NAXCIVAN,AJ
AJ000037985,38.75,48.817,-12.0,LANKARAN,AJ
AJ000037989,38.5,48.9,-22.0,ASTARA,AJ
AJXLT263100,40.4,49.8,0.0,BAKU,AJ
ALE00100939,41.3331,19.7831,89.0,TIRANA,AL
ALE00108905,42.1,19.5331,43.0,SHKODRA,AL
ALM00013610,42.0333,20.4167,354.0,KUKES,AL
ALM00013615,41.415,19.721,38.4,TIRANA_RINAS,AL
ALM00013622,40.4667,19.4833,1.0,VLORE,AL
ALM00013625,40.0833,20.15,193.0,GJIROKASTER,AL
ALM00013629,40.6,20.7667,889.0,KORCA,AL
AM000037682,40.783,43.833,1866.0,AMASIA,AM
AM000037686,40.78,43.83,1523.0,GUMRI,AM
AM000037781,40.5,44.2,3223.0,ARAGAC_VISOKOGORNAYA,AM
AM000037789,40.2,44.5,1113.0,YEREVAN,AM
AM000037801,40.35,45.1331,1961.0,GAVAR,AM
AMM00037717,40.567,45.0,1917.0,SEVAN_OZERO,AM
AO000066160,-8.85,13.233,74.0,LUANDA,AO
AO000066270,-11.417,15.117,1304.0,WAKU_KUNGU_CELA,AO
AO000066390,-14.933,13.567,1761.0,LUBANGO_SA_DA_BAND,AO
AO000066410,-14.65,17.683,1343.0,MENONGUE_SERPA_PIN,AO
AO000066422,-15.2,12.15,45.0,MOCAMEDES,AO
AO000066447,-15.833,20.35,1088.0,MAVINGA,AO
AOM00066140,-7.58,15.0,824.0,UIGECARMONA,AO
AOM00066152,-7.4,20.82,776.0,DUNDO,AO
AOM00066215,-9.55,16.37,1139.0,MALANJE,AO
AOM00066226,-9.67,20.38,1096.0,SAURIMO,AO
AOM00066285,-11.7833,19.9267,1329.0,LUENA_LUSO,AO
AOM00066318,-12.8,15.75,1701.0,HUAMBONOVA_LISBOA,AO
AOM00066325,-12.38,16.95,1711.0,SILVA_PORTOBIE_KUITO,AO
AOXLT237217,-9.7,20.4,1080.0,HENRIQUE_DE_CARVALHO,AO
AOXLT400864,-14.9,13.6,1758.0,SA_DA_BANDEIRA,AO
AOXLT442550,-12.33,13.55,3.0,LOBITO,AO
AOXLT606864,-14.92,13.48,1786.0,SA_DA_BANDEIRA,AO
AOXLT714994,-17.1,15.7,1150.0,PEREIRA_DECA,AO
AOXLT781717,-5.55,12.2,20.0,CABINDA,AO
AOXLT894964,-10.7,13.75,5.0,PORTO_AMBOIM,AO
AQC00914869,-14.3333,-170.7167,3.0,TAFUNA_AP_TUTUILA,AQ
AQW00061705,-14.3306,-170.7136,3.7,PAGO_PAGO_WSO_AP,AQ
AR000000011,-30.267,-57.65,53.0,MONTE_CASEROS_AERO,AR
AR000087007,-22.1,-65.6,3479.0,LA_QUIACA_OBSERVATO,AR
AR000087065,-24.167,-62.9,205.0,RIVADAVIA,AR
AR000087078,-24.7,-60.583,130.0,LAS_LOMITAS,AR
AR000087129,-27.767,-64.3,200.0,SANTIAGO_DEL_ESTERO,AR
AR000087155,-27.45,-59.05,53.0,RESISTENCIA_AERO,AR
AR000087217,-29.383,-66.817,438.0,LA_RIOJA_AERO,AR
AR000087257,-29.883,-61.95,88.0,CERES_AERO,AR
AR000087270,-29.183,-59.7,53.0,RECONQUISTA_AERO,AR
AR000087344,-31.317,-64.217,489.0,CORDOBA_AERO,AR
AR000087374,-31.783,-60.483,74.0,PARANA_AERO,AR
AR000087418,-32.833,-68.783,704.0,MENDOZA_AERO,AR
AR000087534,-34.133,-63.367,137.0,LABOULAYE_AERO,AR
AR000087623,-36.567,-64.266,192.0,SANTA_ROSA_AERO,AR
AR000087692,-37.933,-57.583,22.0,MAR_DEL_PLATA_AERO,AR
AR000087715,-38.95,-68.133,273.0,NEUQUEN_AERO,AR
AR000087803,-42.933,-71.15,799.0,ESQUEL_AERO,AR
AR000087828,-43.2,-65.266,43.0,TRELEW_AERO,AR
AR000087860,-45.783,-67.5,58.0,COMODORO_RIVADAVIA,AR
AR000087925,-51.617,-69.283,19.0,RIO_GALLEGOS_AERO,AR
AR000870470,-24.85,-65.483,1246.0,SALTA_AERO,AR
AR000873050,-30.25,-68.75,1175.0,JACHAL,AR
AR000875440,-35.867,-61.9,85.0,PEHUAJO_AERO,AR
AR000875850,-34.583,-58.483,25.0,BUENOS_AIRES_OBSERV,AR
AR000877500,-38.733,-62.167,75.0,BAHIA_BLANCA_AERO,AR
ARM00087016,-23.153,-64.329,356.0,ORAN,AR
ARM00087022,-22.62,-63.794,449.0,GENERAL_ENRIQUE_MOSCONI_TARTA,AR
ARM00087046,-24.393,-65.098,920.2,JUJUY,AR
ARM00087121,-26.841,-65.105,455.7,TENIENTE_BENJAMIN_MATIENZO,AR
ARM00087148,-26.733,-60.483,93.0,PRESIDENCIA_ROQUE_SAENZ_PENA,AR
ARM00087162,-26.213,-58.228,59.1,FORMOSA,AR
ARM00087166,-27.446,-58.762,61.9,CORRIENTES,AR
ARM00087178,-27.386,-55.971,131.1,POSADAS,AR
ARM00087222,-28.596,-65.752,463.9,CATAMARCA,AR
ARM00087244,-29.9,-63.683,341.0,VILLA_MARIA_DEL_RIO,AR
ARM00087289,-29.689,-57.152,70.1,PASO_DE_LOS_LIBRES,AR
ARM00087311,-31.571,-68.418,597.1,SAN_JUAN,AR
ARM00087320,-30.367,-66.283,461.0,CHAMICAL_AERO,AR
ARM00087322,-31.333,-66.6,658.0,CHEPES,AR
ARM00087328,-31.945,-65.146,583.7,VILLA_DOLORES,AR
ARM00087345,-31.4,-64.183,426.0,CORDOBA_OBSERVATORIO,AR
ARM00087349,-31.667,-63.883,338.0,PILAR_OBSERVATORIO,AR
ARM00087395,-31.297,-57.997,34.1,COMODORO_PIERRESTEGUI,AR
ARM00087416,-33.083,-68.417,653.0,SAN_MARTIN,AR
ARM00087420,-32.883,-68.85,827.0,MENDOZA_OBSERVATORIO,AR
ARM00087436,-33.273,-66.356,709.9,SAN_LUIS,AR
ARM00087448,-33.73,-65.387,484.9,VILLA_REYNOLDS,AR
ARM00087453,-33.085,-64.261,420.9,RIO_CUARTO_AREA_DE_MATERIAL,AR
ARM00087467,-32.684,-62.158,110.0,MARCOS_JUAREZ,AR
ARM00087480,-32.904,-60.785,25.9,ROSARIO,AR
ARM00087497,-33.01,-58.613,22.9,GUALEGUAYCHU,AR
ARM00087506,-35.494,-69.574,1430.1,MALARGUE,AR
ARM00087509,-34.588,-68.403,752.9,SAN_RAFAEL,AR
ARM00087532,-35.696,-63.758,139.9,GENERAL_PICO,AR
ARM00087548,-34.546,-60.931,79.9,JUNIN,AR
ARM00087550,-35.45,-60.883,76.0,NUEVE_DE_JULIO,AR
ARM00087563,-36.067,-59.1,38.0,LAS_FLORES,AR
ARM00087576,-34.822,-58.536,20.4,MINISTRO_PISTARINI,AR
ARM00087582,-34.559,-58.416,5.5,AEROPARQUE_JORGE_NEWBERY,AR
ARM00087593,-34.972,-57.895,21.9,LA_PLATA,AR
ARM00087596,-35.367,-57.283,22.0,PUNTA_INDIO_BA,AR
ARM00087637,-37.433,-61.883,233.0,CORONEL_SUAREZ_AERO,AR
ARM00087640,-36.2,-61.067,94.0,BOLIVAR_AERO,AR
ARM00087641,-36.833,-59.883,147.0,AZUL_AERO,AR
ARM00087645,-37.237,-59.228,175.0,TANDIL,AR
ARM00087648,-36.35,-57.733,9.0,DOLORES_AIRPORT,AR
ARM00087679,-37.6,-62.383,304.0,PIGUE_AIRPORT,AR
ARM00087688,-38.387,-60.33,121.9,TRES_ARROYOS,AR
ARM00087736,-39.017,-64.083,79.0,RIO_COLORADO,AR
ARM00087765,-41.151,-71.158,846.1,SAN_CARLOS_DE_BARILOCHE,AR
ARM00087774,-41.25,-68.733,888.0,MAQUINCHAO,AR
ARM00087784,-40.783,-65.1,20.0,SAN_ANTONIO_OESTE_AERO,AR
ARM00087791,-40.869,-63.0,6.1,GOBERNADOR_CASTELLO,AR
ARM00087800,-41.943,-71.532,344.7,EL_BOLSON,AR
ARM00087814,-43.817,-68.883,460.0,PASO_DE_INDIOS,AR
ARM00087852,-46.517,-71.017,429.0,PERITO_MORENO_ARPT,AR
ARM00087880,-48.783,-70.167,356.0,GOBERNADOR_GREGORES,AR
ARM00087896,-47.735,-65.904,81.1,PUERTO_DESEADO,AR
ARM00087903,-50.333,-72.3,220.0,LAGO_ARGENTINO_ARPT,AR
ARM00087904,-50.267,-72.05,204.0,EL_CALAFATE_AERO,AR
ARM00087909,-49.307,-67.803,57.9,SAN_JULIAN,AR
ARM00087934,-53.778,-67.749,19.8,RIO_GRANDE,AR
ARM00087938,-54.843,-68.296,21.6,USHUAIA_MALVINAS_ARGENTINAS,AR
ARN00000038,-34.92,-62.73,9999.0,GENERALVILLEGAS_INTA,AR
ARN00000067,-28.43,-58.92,9999.0,BELLAVISTA_INTA,AR
ARN00000070,-28.48,-65.73,9999.0,CATAMARCA_INTASUMALAO,AR
ARN00000098,-31.18,-61.55,9999.0,RAFAELA_INTA,AR
ARN00000145,-33.93,-60.55,9999.0,PERGAMINO_INTA,AR
ARN00000216,-38.32,-60.25,9999.0,BARROW_INTA,AR
ARN00000230,-39.01,-67.4,9999.0,ALTOVALLEDERIONEGRO_INTA,AR
ARN00000343,-37.85,-63.02,9999.0,BORDENAVE_INTABUENOSAIRES,AR
ARN00000358,-34.67,-58.65,9999.0,CASTELAR_INTA,AR
ARN00000400,-37.75,-58.3,9999.0,BALCARCE_INTABUENOSAIRES,AR
ARN00000416,-27.1,-61.1,9999.0,LASBREAS_INTA,AR
ARN00000421,-39.38,-62.62,9999.0,HILARIOASCASUBI_INTA,AR
ARN00000423,-27.65,-55.43,9999.0,CERROAZUL_INTA,AR
ARN00000438,-31.82,-63.77,9999.0,MANFREDI_INTA,AR
ARN00000442,-33.73,-69.12,9999.0,LACONSULTA_INTA_MENDOZA,AR
ARN00000444,-27.05,-65.42,9999.0,FAMAILLA_INTA_TUCUMA,AR
ARN00000445,-31.37,-68.32,9999.0,SANJUANPOCITO_INTA,AR
ARN00000446,-36.5,-63.98,9999.0,ANGUIL_INTALAPAMPA,AR
ARN00000448,-34.67,-68.38,9999.0,RAMACAIDA_INTA_MENDOZA,AR
ARN00000457,-22.83,-65.85,9999.0,ABRAPAMPA_INTA_JUJUY,AR
ARN00000464,-26.3,-59.38,9999.0,ELCOLORADO_INTA,AR
ARN00000472,-32.55,-60.85,9999.0,OLIVEROS_INTA,AR
ARN00000492,-33.68,-59.68,9999.0,SANPEDRO_INTA,AR
ARN00000496,-31.38,-58.03,9999.0,CONCORDIA_INTA,AR
ARN00000497,-32.4,-58.23,9999.0,CONCDELURUGUAY_INTA,AR
ARN00000498,-29.17,-58.02,9999.0,MERCEDES_INTACTES,AR
ARXLT052250,-50.2,-68.4,12.0,SANTA_CRUZ_PUERTO_WAS_879140,AR
ARXLT082667,-37.1,-70.3,864.0,CHOS_MALAL,AR
ARXLT097381,-38.95,-67.98,265.0,CIPOLLETTI,AR
ARXLT099684,-36.5,-57.3,9999.0,GEN_CONESA_ARGENTI,AR
ARXLT122749,-45.58,-69.07,272.0,COLONIA_SARM,AR
ARXLT146898,-38.53,-70.38,713.0,LAS_LAJAS,AR
ARXLT185239,-38.0,-57.1,24.0,MAR_DEL_PLATAWAS_876940,AR
ARXLT203610,-31.7,-60.81,18.0,SAUCE_VIEJO_AERO,AR
ARXLT208531,-32.98,-68.86,921.0,CHACRAS_DE_CORIA,AR
ARXLT242717,-39.2,-66.8,9999.0,CHOELE_CHOEL_ARGENT,AR
ARXLT297472,-52.4,-68.4,5.0,PUNTA_DUNGEN,AR
ARXLT309443,-37.1,-63.7,142.0,MACACHIN_ARGENTINA,AR
ARXLT328770,-37.4,-64.6,230.0,GENERAL_ACHA,AR
ARXLT361672,-27.6,-66.2,9999.0,ANDALGALA_ARGENTINA,AR
ARXLT374324,-36.22,-65.42,312.0,VICTORICA,AR
ARXLT417177,-27.75,-57.63,74.0,GENERAL_PAZ,AR
ARXLT498842,-29.1,-59.3,36.0,GOYA,AR
ARXLT513600,-36.8,-59.8,131.0,AZUL_ARGENTINA,AR
ARXLT538245,-31.85,-59.08,43.0,VILLAGUAY_AERO,AR
ARXLT581111,-34.7,-59.5,9999.0,MERCEDES_ARGENTINA,AR
ARXLT645851,-30.8,-59.8,9999.0,LA_PAZ_ARGENTINA,AR
ARXLT657745,-25.6,-54.6,125.0,PTO_PTE_FRANCO_PAR,AR
ARXLT662267,-26.9,-65.1,5.0,CEVIL_POZO_AERO,AR
ARXLT663345,-33.0,-61.2,9999.0,CASILDA_ARGENTINA,AR
ARXLT678345,-32.5,-62.6,9999.0,BELL_VILLE_ARGENTIN,AR
ARXLT725249,-42.9,-71.35,568.0,ESQUEL,AR
ARXLT725895,-26.85,-65.18,427.0,TUCUMAN,AR
ARXLT754115,-26.82,-60.45,93.0,PCIA_R_SCIE,AR
ARXLT811415,-31.5,-68.7,630.0,SAN_JUANARGWAS_873120,AR
ARXLT834021,-24.78,-65.42,1173.0,SALTA,AR
ARXLT847638,-34.3,-58.7,9999.0,SAN_MIGUEL_ARGENTIN,AR
ARXLT893853,-46.8,-69.5,9999.0,PATAGONES_ARGENTINA,AR
ARXLT894786,-42.8,-65.0,14.0,PUERTO_MADRYN_WAS_878280,AR
ARXLT926859,-26.8,-65.2,480.0,TUCUMAN_OBSERVATORIO,AR
ARXLT945445,-28.5,-65.8,531.0,CATAMARCA_AEROARG,AR
ARXLT954992,-54.7,-64.2,53.0,ANO_NUEVO,AR
ARXLT965754,-29.4,-60.2,9999.0,VERA_ARGENTINA,AR
ASM00094275,-18.3,143.55,295.0,GEORGETOWN_POST_OFFICE,AS
ASM00094299,-16.288,149.965,9.0,WILLIS_ISLAND,AS
ASM00094940,-35.083,150.8,85.0,JERVIS_BAY,AS
ASM00094995,-31.542,159.079,7.0,LORD_HOWE_ISLAND_AERO,AS
ASM00094997,-53.1,73.717,12.0,HEARD_ISLAND_THE_SPIT,AS
ASM00094998,-54.499,158.937,8.3,MACQUARIE_ISLAND,AS
ASM00095997,-53.017,73.4,4.0,HEARD_ISLAND_ATLAS_COVE,AS
ASN00001005,-15.4644,128.1,20.0,WYNDHAM_PORT,AS
ASN00001006,-15.51,128.1503,3.8,WYNDHAM_AERO,AS
ASN00001007,-13.7542,126.1485,6.0,TROUGHTON_ISLAND,AS
ASN00001009,-15.4875,124.5222,12.0,KURI_BAY,AS
ASN00001012,-14.7925,125.8258,315.0,MITCHELL_PLATEAU,AS
ASN00001013,-15.4872,128.1247,11.0,WYNDHAM,AS
ASN00001018,-16.4181,126.1025,546.0,MOUNT_ELIZABETH,AS
ASN00001019,-14.2964,126.6453,23.0,KALUMBURU,AS
ASN00001020,-14.09,126.3867,51.0,TRUSCOTT,AS
ASN00001021,-14.2961,126.6431,23.0,KALUMBURU_MISSION,AS
ASN00001025,-15.3797,126.3114,385.0,DOONGAN,AS
ASN00002011,-18.2519,127.7817,360.0,OLD_HALLS_CREEK,AS
ASN00002012,-18.2292,127.6636,422.0,HALLS_CREEK_AIRPORT,AS
ASN00002014,-15.6547,128.7092,31.0,KIMBERLEY_RESSTATION,AS
ASN00002032,-17.0156,128.2175,203.0,WARMUN,AS
ASN00002038,-15.7828,128.7353,47.0,KUNUNURRA,AS
ASN00002056,-15.7814,128.71,44.0,KUNUNURRA_AERO,AS
ASN00002064,-16.6381,128.4517,164.0,ARGYLE_AERODROME,AS
ASN00002071,-18.2303,127.6625,422.0,HALLS_CREEK_COMPARISON,AS
ASN00003002,-17.95,122.25,19.0,BROOME_POST_OFFICE,AS
ASN00003003,-17.9475,122.2353,7.4,BROOME_AIRPORT,AS
ASN00003004,-16.3961,122.9278,25.0,CAPE_LEVEQUE,AS
ASN00003006,-18.1919,125.5644,114.0,FITZROY_CROSSING_COMP,AS
ASN00003007,-17.3044,123.6292,8.0,DERBY_POST_OFFICE,AS
ASN00003025,-16.09,123.5942,13.0,COCKATOO_ISLAND,AS
ASN00003030,-18.6844,121.7803,11.0,BIDYADANGA,AS
ASN00003032,-17.3706,123.6611,6.2,DERBY_AERO,AS
ASN00003057,-16.4514,123.0086,7.0,CYGNET_BAY,AS
ASN00003080,-17.5736,123.8217,77.5,CURTIN_AERO,AS
ASN00003093,-18.1814,125.5619,114.5,FITZROY_CROSSING_AERO,AS
ASN00003096,-17.8964,122.3122,32.0,WEST_ROEBUCK,AS
ASN00004002,-20.3139,118.5742,8.0,PORT_HEDLAND_POST_OFFICE,AS
ASN00004019,-19.7419,120.8436,7.5,MANDORA,AS
ASN00004020,-21.1756,119.7497,182.3,MARBLE_BAR_COMPARISON,AS
ASN00004027,-21.8861,120.1103,380.0,NULLAGINE,AS
ASN00004028,-20.1078,119.5811,9.0,PARDOO_STATION,AS
ASN00004032,-20.3725,118.6317,6.4,PORT_HEDLAND_AIRPORT,AS
ASN00004035,-20.7767,117.1456,12.0,ROEBOURNE,AS
ASN00004043,-21.9931,119.0131,387.0,REDMONT,AS
ASN00004074,-20.3422,119.5206,45.0,GOLDSWORTHY,AS
ASN00004083,-20.7097,116.7742,7.0,KARRATHA_AERO,AS
ASN00004090,-20.7594,117.1583,10.7,ROEBOURNE_AERO,AS
ASN00004106,-21.1756,119.7497,182.3,MARBLE_BAR,AS
ASN00005007,-22.2406,114.0967,5.0,LEARMONTH_AIRPORT,AS
ASN00005008,-21.1906,115.9797,11.0,MARDIE,AS
ASN00005016,-21.6364,115.1117,4.0,ONSLOW,AS
ASN00005017,-21.6689,115.1092,10.5,ONSLOW_AIRPORT,AS
ASN00005024,-21.8067,114.1072,12.0,VLAMINGH_HEAD,AS
ASN00005026,-22.2425,118.3358,463.0,WITTENOOM,AS
ASN00005058,-20.8206,115.3931,62.0,BARROW_ISLAND,AS
ASN00005061,-20.7278,116.7483,6.0,DAMPIER_SALT,AS
ASN00005069,-21.6392,116.3308,200.0,PANNAWONICA,AS
ASN00005072,-22.6967,117.7703,746.0,TOM_PRICE,AS
ASN00005084,-21.4606,115.0197,5.0,THEVENARD_ISLAND,AS
ASN00005094,-20.875,115.4056,6.4,BARROW_ISLAND_AIRPORT,AS
ASN00006011,-24.8878,113.67,4.0,CARNARVON_AIRPORT,AS
ASN00006022,-25.0544,115.21,144.0,GASCOYNE_JUNCTION,AS
ASN00006025,-26.4008,114.1667,15.0,HAMELIN_POOL,AS
ASN00006044,-25.9261,113.5319,9.0,DENHAM,AS
ASN00006062,-24.9,113.65,4.6,CARNARVON_POST_OFFICE,AS
ASN00006072,-23.0314,115.0414,111.0,EMU_CREEK_STATION,AS
ASN00006099,-26.8936,115.9561,287.0,MURCHISON,AS
ASN00006105,-25.8925,113.5772,33.8,SHARK_BAY_AIRPORT,AS
ASN00007017,-27.4233,117.8994,453.0,CUE,AS
ASN00007045,-26.6136,118.5372,517.0,MEEKATHARRA_AIRPORT,AS
ASN00007046,-26.5933,118.4883,511.0,MEEKATHARRA_POST_OFFICE,AS
ASN00007057,-28.0619,117.8503,426.0,MOUNT_MAGNET,AS
ASN00007062,-23.7942,120.2442,571.0,MUNDIWINDI,AS
ASN00007064,-27.3636,116.4261,303.0,MURGOO,AS
ASN00007080,-25.1256,119.1514,520.0,THREE_RIVERS,AS
ASN00007091,-28.3392,116.6828,318.0,YALGOO,AS
ASN00007139,-29.2708,117.6836,339.0,PAYNES_FIND,AS
ASN00007151,-23.3683,119.7314,544.0,NEWMAN,AS
ASN00007176,-23.4169,119.7989,524.0,NEWMAN_AERO,AS
ASN00007178,-23.2028,117.6692,391.0,PARABURDOO,AS
ASN00007185,-23.1725,117.7494,423.7,PARABURDOO_AERO,AS
ASN00007600,-28.1156,117.8425,407.0,MOUNT_MAGNET_AERO,AS
ASN00008025,-29.6889,115.8869,268.0,CARNAMAH,AS
ASN00008028,-28.5008,114.7897,145.0,NABAWA,AS
ASN00008039,-30.2772,116.6619,335.0,DALWALLINU_COMPARISON,AS
ASN00008050,-28.7769,114.605,3.0,GERALDTON_TOWN,AS
ASN00008051,-28.7953,114.6975,33.0,GERALDTON_AIRPORT,AS
ASN00008091,-30.6417,116.0072,203.0,MOORA,AS
ASN00008093,-29.2103,116.0089,274.0,MORAWA,AS
ASN00008095,-28.5367,115.5142,268.0,MULLEWA,AS
ASN00008137,-30.8917,116.7186,283.0,WONGAN_HILLS,AS
ASN00008138,-30.8408,116.7267,305.0,WONGAN_HILLS_RESSTATION,AS
ASN00008151,-30.665,116.1386,300.0,WALEBING,AS
ASN00008225,-29.8183,115.2722,100.0,ENEABBA,AS
ASN00008251,-27.7119,114.165,6.0,KALBARRI,AS
ASN00008267,-28.3517,114.5778,60.0,NOKANENA,AS
ASN00008290,-28.3008,113.5936,2.2,NORTH_ISLAND,AS
ASN00008296,-29.2039,116.0247,271.4,MORAWA_AIRPORT,AS
ASN00008297,-30.2761,116.6714,324.5,DALWALLINU,AS
ASN00009017,-32.055,115.75,5.0,FREMANTLE,AS
ASN00009021,-31.9275,115.9764,15.4,PERTH_AIRPORT,AS
ASN00009034,-31.95,115.8667,19.0,PERTH_REGIONAL_OFFICE,AS
ASN00009035,-31.9861,115.8192,6.1,NEDLANDS_UWA,AS
ASN00009037,-30.3381,115.5394,275.0,BADGINGARRA_RESEARCH_STN,AS
ASN00009038,-32.0089,115.5022,46.0,ROTTNEST_ISLAND_LIGHTHOUSE,AS
ASN00009053,-31.6669,116.0189,40.0,PEARCE_RAAF,AS
ASN00009058,-31.9822,116.0594,210.0,KALAMUNDA,AS
ASN00009064,-32.2258,115.7611,4.0,KWINANA_BP_REFINERY,AS
ASN00009106,-32.0486,115.9839,10.0,GOSNELLS_CITY,AS
ASN00009111,-32.44,116.0744,286.0,KARNET,AS
ASN00009114,-31.0164,115.33,4.0,LANCELIN,AS
ASN00009131,-30.3081,115.0311,1.6,JURIEN_BAY,AS
ASN00009172,-32.1011,115.8794,30.0,JANDAKOT_AERO,AS
ASN00009178,-31.4628,115.8642,73.0,GINGIN_AERO,AS
ASN00009193,-32.0069,115.5022,43.1,ROTTNEST_ISLAND,AS
ASN00009194,-32.2208,115.8075,14.0,MEDINA_RESEARCH_CENTRE,AS
ASN00009215,-31.9558,115.7619,41.0,SWANBOURNE,AS
ASN00009225,-31.9192,115.8728,24.9,PERTH_METRO,AS
ASN00009240,-32.0056,116.1364,384.0,BICKLEY,AS
ASN00009256,-32.2433,115.6839,6.0,GARDEN_ISLAND_HSF,AS
ASN00009500,-35.0289,117.8808,3.0,ALBANY,AS
ASN00009510,-33.9575,116.1375,149.9,BRIDGETOWN_COMPARISON,AS
ASN00009514,-33.3267,115.63,4.0,BUNBURY_POST_OFFICE,AS
ASN00009515,-33.6611,115.3456,4.0,BUSSELTON_SHIRE,AS
ASN00009518,-34.3728,115.1358,13.0,CAPE_LEEUWIN,AS
ASN00009519,-33.5372,115.0189,109.0,CAPE_NATURALISTE,AS
ASN00009534,-33.5719,115.8247,63.0,DONNYBROOK,AS
ASN00009538,-32.7103,116.0594,267.0,DWELLINGUP,AS
ASN00009541,-33.85,121.8833,4.0,ESPERANCE_POST_OFFICE,AS
ASN00009542,-33.6825,121.8275,142.0,ESPERANCE_AERO,AS
ASN00009569,-33.655,115.3194,3.9,BUSSELTON,AS
ASN00009572,-32.5031,115.7664,15.0,MANDURAH_PARK,AS
ASN00009573,-34.2508,116.145,286.7,MANJIMUP,AS
ASN00009581,-34.625,117.6361,300.0,MOUNT_BARKER,AS
ASN00009592,-34.4478,116.0433,174.0,PEMBERTON,AS
ASN00009603,-33.6858,115.4008,16.3,BUSSELTON_AERO,AS
ASN00009617,-33.9486,116.1311,178.7,BRIDGETOWN,AS
ASN00009628,-33.36,116.1467,204.0,COLLIE,AS
ASN00009631,-33.6031,121.7828,158.0,ESPERANCE_DOWNS_RESEARCH_STN,AS
ASN00009637,-34.9511,117.37,18.0,DENMARK_RESSTN,AS
ASN00009642,-33.1336,115.8808,30.0,WOKALUP,AS
ASN00009741,-34.9414,117.8022,68.0,ALBANY_AIRPORT,AS
ASN00009746,-34.0281,115.1042,80.0,WITCHCLIFFE,AS
ASN00009754,-34.5961,118.5519,120.0,METTLER,AS
ASN00009787,-35.1833,117.8833,103.0,ECLIPSE_ISLAND,AS
ASN00009789,-33.83,121.8925,25.0,ESPERANCE,AS
ASN00009812,-33.0789,115.8806,40.0,HARVEY,AS
ASN00009842,-33.7964,115.6658,130.0,JARRAHWOOD,AS
ASN00009871,-34.8361,116.0308,4.5,WINDY_HARBOUR,AS
ASN00009887,-32.5211,115.75,21.0,MANDURAH,AS
ASN00009961,-33.9306,120.1283,26.0,HOPETOUN_NORTH,AS
ASN00009964,-34.5714,117.0106,250.0,ROCKY_GULLY,AS
ASN00009965,-33.3567,115.6447,5.2,BUNBURY,AS
ASN00009968,-34.5683,116.3367,210.0,SHANNON,AS
ASN00009977,-32.5219,115.7119,3.0,MANDURAH,AS
ASN00009994,-33.3608,116.1717,200.0,COLLIE_EAST,AS
ASN00009998,-34.9469,116.7222,73.0,NORTH_WALPOLE,AS
ASN00010007,-30.8081,117.8603,359.0,BENCUBBIN,AS
ASN00010035,-31.6494,117.2331,220.0,CUNDERDIN,AS
ASN00010058,-31.2994,116.8269,239.0,GOOMALLING,AS
ASN00010073,-31.6183,117.7217,250.0,KELLERBERRIN,AS
ASN00010092,-31.4756,118.2789,315.0,MERREDIN,AS
ASN00010093,-31.4994,118.2242,318.0,MERREDIN_RESEARCH_STATION,AS
ASN00010111,-31.6508,116.6586,170.0,NORTHAM,AS
ASN00010144,-31.8836,116.7581,174.0,YORK_POST_OFFICE,AS
ASN00010152,-31.75,116.6833,166.0,MURESK_AGRICCOLLEGE,AS
ASN00010244,-31.7603,116.4781,330.0,BAKERS_HILL_CSIRO,AS
ASN00010286,-31.6219,117.2217,216.7,CUNDERDIN_AIRFIELD,AS
ASN00010311,-31.8997,116.765,179.0,YORK,AS
ASN00010515,-32.1083,116.9247,199.0,BEVERLEY,AS
ASN00010524,-32.3725,117.0072,250.0,BROOKTON,AS
ASN00010536,-32.3292,117.8733,295.0,CORRIGIN,AS
ASN00010554,-33.8167,117.1667,330.0,GLEN_LOSSIE,AS
ASN00010568,-32.4419,118.8983,299.0,HYDEN,AS
ASN00010579,-33.6886,117.5553,310.0,KATANNING_COMPARISON,AS
ASN00010582,-33.83,117.159,305.0,KOJONUP,AS
ASN00010592,-33.1006,118.4625,286.0,LAKE_GRACE_COMPARISON,AS
ASN00010612,-32.0656,118.3956,276.0,NAREMBEEN,AS
ASN00010614,-32.9342,117.1797,338.0,NARROGIN,AS
ASN00010622,-33.9644,118.4889,286.0,ONGERUP,AS
ASN00010626,-32.5336,117.0831,297.0,PINGELLY,AS
ASN00010633,-33.5803,120.0458,232.0,RAVENSTHORPE,AS
ASN00010647,-33.3075,117.3403,256.0,WAGIN,AS
ASN00010648,-32.6814,116.6756,280.0,WANDERING_COMPARISON,AS
ASN00010692,-33.1131,118.84,320.0,NEWDEGATE_RESEARCH_STATION,AS
ASN00010905,-33.8878,119.1092,305.0,JACUP,AS
ASN00010911,-33.1006,118.4647,286.0,LAKE_GRACE,AS
ASN00010916,-33.6856,117.6064,320.0,KATANNING,AS
ASN00010917,-32.6722,116.6706,275.0,WANDERING,AS
ASN00011003,-31.6797,128.8792,93.1,EUCLA,AS
ASN00011004,-30.8389,128.1139,156.0,FORREST_AERO,AS
ASN00011013,-31.0119,125.3294,182.0,RAWLINNA,AS
ASN00011017,-32.4569,123.8653,151.0,BALLADONIA,AS
ASN00011019,-32.2464,126.3008,5.6,EYRE,AS
ASN00011045,-31.09,125.6589,162.0,BALGAIR,AS
ASN00011052,-30.8453,128.1092,159.0,FORREST,AS
ASN00011053,-32.2028,127.5297,3.1,RED_ROCKS_POINT,AS
ASN00012008,-27.7556,119.9078,610.0,BOOYLGOO_SPRING,AS
ASN00012009,-32.2147,121.7547,262.5,NORSEMAN_AERO,AS
ASN00012022,-28.97,119.5686,450.0,CASHMERE_DOWNS,AS
ASN00012038,-30.7847,121.4533,365.3,KALGOORLIE_BOULDER_AIRPORT,AS
ASN00012039,-30.75,121.4667,361.0,KALGOORLIE_POST_OFFICE,AS
ASN00012044,-33.5547,120.6997,220.0,MUNGLINUP_WEST,AS
ASN00012045,-28.6306,122.4072,461.0,LAVERTON,AS
ASN00012046,-28.8836,121.3303,376.0,LEONORA,AS
ASN00012052,-29.6939,121.0297,425.9,MENZIES,AS
ASN00012065,-32.1981,121.7794,277.0,NORSEMAN,AS
ASN00012071,-32.9869,121.6239,249.0,SALMON_GUMS_RESSTN,AS
ASN00012074,-31.2319,119.3281,355.0,SOUTHERN_CROSS,AS
ASN00012090,-27.2842,120.0931,487.0,YEELIRRIE,AS
ASN00012219,-28.1664,123.6556,441.6,YAMARNA,AS
ASN00012239,-28.4967,119.7436,438.5,BULGA_DOWNS,AS
ASN00012241,-28.8789,121.3186,370.0,LEONORA_AERO,AS
ASN00012242,-29.6694,119.3031,434.0,DIEMALS,AS
ASN00012281,-33.5969,120.7578,210.0,MUNGLINUP_MELALEUCA,AS
ASN00012305,-28.6133,122.4236,464.3,LAVERTON_AERO,AS
ASN00012314,-27.8386,120.7031,497.0,LEINSTER_AERO,AS
ASN00012320,-31.2353,119.3564,347.4,SOUTHERN_CROSS_AIRFIELD,AS
ASN00013007,-20.1417,127.9867,420.0,BALGO_HILLS,AS
ASN00013011,-26.1317,126.5839,459.0,WARBURTON_AIRFIELD,AS
ASN00013012,-26.5914,120.225,521.0,WILUNA,AS
ASN00013015,-25.7964,122.9753,448.0,CARNEGIE,AS
ASN00013017,-25.0341,128.301,598.0,GILES_METEOROLOGICAL_OFFICE,AS
ASN00013030,-21.7125,122.2281,291.9,TELFER_AERO,AS
ASN00014008,-11.3167,131.7667,19.0,CAPE_DON,AS
ASN00014011,-11.1456,132.5688,35.0,MINJILANG,AS
ASN00014015,-12.4239,130.8925,30.4,DARWIN_AIRPORT,AS
ASN00014016,-12.4,130.8,24.4,DARWIN_POST_OFFICE,AS
ASN00014040,-12.4227,130.8844,30.0,DARWIN_AIRPORT_COMPARISON,AS
ASN00014041,-12.605,131.2988,14.1,MIDDLE_POINT_AWS,AS
ASN00014042,-12.3263,133.0581,6.7,OENPELLI,AS
ASN00014090,-12.5781,131.3145,10.0,MIDDLE_POINT,AS
ASN00014142,-11.4022,130.4217,18.3,PIRLANGIMPI,AS
ASN00014153,-11.1538,132.143,5.0,BLACK_POINT,AS
ASN00014198,-12.6594,132.8939,26.5,JABIRU_AIRPORT,AS
ASN00014272,-13.0545,131.0252,104.0,BATCHELOR_AERO,AS
ASN00014274,-11.0468,132.9791,1.4,MCCLUER_ISLAND,AS
ASN00014277,-12.635,130.3725,3.5,DUM_IN_MIRRIE_AWS,AS
ASN00014400,-12.0482,134.2263,11.0,MANINGRIDA,AS
ASN00014401,-11.6502,133.3796,19.2,WARRUWI,AS
ASN00014402,-12.1239,134.9078,4.0,MILINGIMBI,AS
ASN00014404,-12.0931,134.8919,15.0,MILINGIMBI_AWS,AS
ASN00014405,-12.0569,134.2339,28.1,MANINGRIDA_AERO,AS
ASN00014502,-12.25,136.8833,9.4,YIRRKALA_MISSION,AS
ASN00014504,-12.028,135.5648,18.0,GALIWINKU,AS
ASN00014506,-13.9833,136.4333,14.0,ANGURUGU,AS
ASN00014507,-13.8483,136.4198,20.0,ALYANGULA_POLICE,AS
ASN00014508,-12.2741,136.8203,51.6,GOVE_AIRPORT,AS
ASN00014512,-12.1939,136.7637,20.0,NHULUNBUY_DTW,AS
ASN00014517,-11.9971,135.5726,8.1,NGAYAWILI,AS
ASN00014518,-13.9747,136.4631,13.7,GROOTE_EYLANDT_AIRPORT_AWS,AS
ASN00014612,-15.5748,133.2138,180.0,LARRIMAH,AS
ASN00014618,-16.253,133.37,211.8,DALY_WATERS,AS
ASN00014626,-16.2636,133.3782,209.8,DALY_WATERS_AWS,AS
ASN00014627,-13.6714,134.3414,103.4,BULMAN_AWS,AS
ASN00014633,-14.7356,134.5291,18.0,ROPER_BAR_STORE,AS
ASN00014703,-15.7426,136.8192,12.2,CENTRE_ISLAND,AS
ASN00014704,-16.4423,136.076,40.0,MCARTHUR_RIVER_MINE,AS
ASN00014707,-17.2122,137.9462,60.0,WOLLOGORANG,AS
ASN00014723,-16.0757,136.3041,16.1,BORROLOOLA,AS
ASN00014825,-16.403,131.0145,88.5,VICTORIA_RIVER_DOWNS,AS
ASN00014829,-18.3325,130.6358,315.6,LAJAMANU,AS
ASN00014840,-17.3871,131.1166,196.0,WAVE_HILL,AS
ASN00014847,-16.1176,130.9558,100.0,KIDMAN_SPRINGS,AS
ASN00014850,-15.6614,130.4808,20.1,TIMBER_CREEK,AS
ASN00014901,-13.8345,131.1872,42.8,DOUGLAS_RIVER,AS
ASN00014902,-14.4589,132.2572,106.9,KATHERINE_COUNCIL,AS
ASN00014903,-14.4437,132.2737,108.0,KATHERINE_AVIATION_MUSEUM,AS
ASN00014904,-14.4833,132.25,120.1,KATHERINE_EXP_FARM,AS
ASN00014905,-14.2403,129.5215,11.0,PORT_KEATS_POLICE,AS
ASN00014909,-13.3275,133.0861,416.0,CENTRAL_ARNHEM_PLATEAU,AS
ASN00014932,-14.5229,132.3826,133.6,TINDAL_RAAF,AS
ASN00014938,-13.7379,130.6834,15.2,MANGO_FARM,AS
ASN00014948,-14.2495,129.5282,28.0,PORT_KEATS_AERO,AS
ASN00014949,-15.7442,131.9182,221.0,DELAMERE_WEAPONS_RANGE,AS
ASN00014954,-14.9408,130.8092,75.0,BRADSHAW,AS
ASN00015034,-19.8983,136.3358,240.0,WONARAH,AS
ASN00015085,-18.637,135.945,218.0,BRUNETTE_DOWNS,AS
ASN00015087,-19.6475,134.1896,376.5,TENNANT_CREEK_POST_OFFICE,AS
ASN00015089,-17.3833,133.4,210.0,NEWCASTLE_WATERS_POST_OFFICE,AS
ASN00015131,-17.5521,133.5407,220.0,ELLIOTT,AS
ASN00015135,-19.6423,134.1833,375.7,TENNANT_CREEK_AIRPORT,AS
ASN00015502,-21.0025,134.4029,375.0,ALI_CURUNG,AS
ASN00015511,-25.3139,131.7571,489.6,CURTIN_SPRINGS,AS
ASN00015525,-21.5317,133.8901,510.5,BARROW_CREEK,AS
ASN00015526,-25.5833,134.5667,267.0,FINKE_POST_OFFICE,AS
ASN00015527,-25.34,131.0583,526.0,AYERS_ROCK,AS
ASN00015528,-22.2562,131.8017,667.0,YUENDUMU,AS
ASN00015540,-23.71,133.8683,580.0,ALICE_SPRINGS_POST_OFFICE,AS
ASN00015546,-23.8289,134.9555,416.0,RINGWOOD,AS
ASN00015548,-20.1883,130.0161,340.0,RABBIT_FLAT,AS
ASN00015590,-23.7951,133.889,546.0,ALICE_SPRINGS_AIRPORT,AS
ASN00015594,-23.4564,134.6849,661.0,ARLTUNGA,AS
ASN00015602,-22.9494,136.1442,328.0,JERVOIS,AS
ASN00015603,-25.8428,133.3027,508.6,KULGERA,AS
ASN00015635,-25.1896,130.9737,492.0,YULARA_AERO,AS
ASN00015643,-22.4518,133.6377,565.6,TERRITORY_GRAPE_FARM,AS
ASN00015652,-24.2914,131.5488,614.0,WATARRKA,AS
ASN00015664,-23.27,129.38,454.3,WALUNGURRU,AS
ASN00015666,-20.1824,130.0148,340.0,RABBIT_FLAT,AS
ASN00016001,-31.1558,136.8054,166.6,WOOMERA_AERODROME,AS
ASN00016007,-29.004,134.7564,215.0,COOBER_PEDY,AS
ASN00016013,-26.2925,132.1283,676.0,ERNABELLA,AS
ASN00016032,-32.5226,136.4926,200.0,NONNING,AS
ASN00016044,-30.7111,134.5694,119.5,TARCOOLA,AS
ASN00016056,-32.1232,137.1505,128.0,YUDNAPINNA,AS
ASN00016065,-30.449,137.1692,76.0,ANDAMOOKA,AS
ASN00016085,-27.3002,133.6201,323.0,MARLA_POLICE_STATION,AS
ASN00016090,-29.0347,134.7222,225.0,COOBER_PEDY_AIRPORT,AS
ASN00016096,-30.4829,136.8772,98.5,ROXBY_DOWNS_OLYMPIC_DAM_AEROD,AS
ASN00016097,-26.2635,132.1771,703.2,ERNABELLA_PUKATJA,AS
ASN00016098,-30.7051,134.5786,123.0,TARCOOLA_AERO,AS
ASN00017005,-30.4667,138.4075,194.0,LEIGH_CREEK_AERO,AS
ASN00017024,-30.066,138.2739,91.0,MARREE_FARINA,AS
ASN00017031,-29.6481,138.0637,50.0,MARREE_COMPARISON,AS
ASN00017043,-27.5553,135.4456,116.5,OODNADATTA_AIRPORT,AS
ASN00017096,-28.1125,140.2102,39.0,MOOMBA,AS
ASN00017099,-30.311,139.3357,318.0,ARKAROOLA,AS
ASN00017110,-30.5963,138.4219,258.8,LEIGH_CREEK_AIRPORT,AS
ASN00017123,-28.0997,140.1956,37.8,MOOMBA_AIRPORT,AS
ASN00017126,-29.6587,138.0684,50.0,MARREE_AERO,AS
ASN00018011,-32.1267,133.6725,10.0,CEDUNA_POST_OFFICE,AS
ASN00018012,-32.1297,133.6976,15.3,CEDUNA_AMO,AS
ASN00018014,-33.7011,136.4937,193.0,CLEVE,AS
ASN00018030,-31.99,132.4372,3.0,FOWLERS_BAY,AS
ASN00018040,-33.1414,136.4125,280.0,KIMBA,AS
ASN00018044,-33.1332,135.5552,57.0,KYANCUTTA,AS
ASN00018052,-32.8361,135.15,168.0,MINNIPA_AGRICULTURAL_CENTRE,AS
ASN00018069,-33.6501,134.888,7.0,ELLISTON,AS
ASN00018070,-34.7225,135.8558,4.0,PORT_LINCOLN,AS
ASN00018079,-32.7963,134.2116,13.0,STREAKY_BAY,AS
ASN00018083,-33.043,135.4519,86.4,WUDINNA_AERO,AS
ASN00018103,-33.0303,137.5328,13.1,WHYALLA_NORRIE,AS
ASN00018106,-31.4492,130.8976,64.0,NULLARBOR,AS
ASN00018110,-30.6143,130.4136,120.0,COOK,AS
ASN00018115,-35.3365,136.1174,32.0,NEPTUNE_ISLAND,AS
ASN00018116,-33.7081,136.5026,175.0,CLEVE_AERODROME,AS
ASN00018120,-33.0539,137.5205,6.5,WHYALLA_AERO,AS
ASN00018139,-33.5085,135.2928,37.0,POLDA_GUM_VIEW,AS
ASN00018181,-34.4906,135.8511,95.0,PORT_LINCOLN_TOD_RIVER,AS
ASN00018191,-34.3749,135.3741,28.0,COULTA_COLES_POINT,AS
ASN00018192,-34.5993,135.8784,8.5,NORTH_SHIELDS_PORT_LINCOLN_AW,AS
ASN00018195,-32.8427,135.1515,165.0,MINNIPA_DPI,AS
ASN00018201,-32.5091,137.7144,14.0,PORT_AUGUSTA_AERO,AS
ASN00019017,-31.8846,138.435,315.0,HAWKER,AS
ASN00019036,-32.5,137.7667,5.0,PORT_AUGUSTA_POST_OFFICE,AS
ASN00019062,-33.0287,138.7489,512.0,YONGALA,AS
ASN00019066,-32.528,137.79,7.0,PORT_AUGUSTA_POWER_STATION,AS
ASN00020026,-32.5819,139.5611,303.0,YUNTA,AS
ASN00020028,-33.7622,140.1251,55.0,GLUEPOT_RESERVE_GLUEPOT,AS
ASN00020062,-32.5707,139.5645,300.0,YUNTA_AIRSTRIP,AS
ASN00021014,-33.8364,138.6125,385.0,CLARE_POST_OFFICE,AS
ASN00021020,-33.359,138.393,273.0,GEORGETOWN,AS
ASN00021043,-33.1708,138.0104,4.0,PORT_PIRIE_NYRSTAR_COMPARISON,AS
ASN00021046,-33.7844,138.2133,103.0,SNOWTOWN,AS
ASN00021131,-33.8226,138.5933,395.0,CLARE_HIGH_SCHOOL,AS
ASN00021133,-33.7676,138.2182,109.1,SNOWTOWN_RAYVILLE_PARK,AS
ASN00022006,-33.9551,137.6953,44.0,KADINA,AS
ASN00022008,-34.3745,137.6733,185.0,MAITLAND,AS
ASN00022015,-34.2971,138.0014,2.0,PRICE,AS
ASN00022018,-34.9906,137.3995,53.0,WAROOKA,AS
ASN00022029,-35.3725,136.8594,80.0,ALTHORPE_ISLAND,AS
ASN00022030,-35.1167,137.8333,3.0,TROUBRIDGE_SHOAL_LIGHTHOUSE,AS
ASN00022031,-34.748,137.5276,32.0,MINLATON_AERO,AS
ASN00022046,-35.1121,137.7395,6.0,EDITHBURGH,AS
ASN00022049,-35.2795,136.9392,42.0,STENHOUSE_BAY,AS
ASN00022050,-33.9703,137.6628,41.1,KADINA_AWS,AS
ASN00022801,-35.7529,136.5938,143.0,CAPE_BORDA_COMPARISON,AS
ASN00022802,-36.0667,136.7,75.0,CAPE_DE_COUEDIC,AS
ASN00022803,-35.8426,138.1327,55.0,CAPE_WILLOUGHBY,AS
ASN00022807,-35.6569,137.6364,20.0,KINGSCOTE,AS
ASN00022814,-35.8,137.3333,155.0,PARNDANA_EAST_RESEARCH_STATION,AS
ASN00022823,-35.7549,136.5959,158.0,CAPE_BORDA,AS
ASN00022841,-35.7114,137.5231,5.0,KINGSCOTE_AERO,AS
ASN00023000,-34.9254,138.5869,40.0,ADELAIDE_WEST_TERRACE,AS
ASN00023013,-34.7977,138.6281,9.5,PARAFIELD_AIRPORT,AS
ASN00023015,-34.7333,138.65,24.0,PENFIELD_WEAPONS_RESEARCH,AS
ASN00023020,-34.5267,138.6883,68.0,ROSEWORTHY_AGRIC_COLLEGE,AS
ASN00023031,-34.9697,138.6331,115.0,ADELAIDE_WAITE_INSTITUTE,AS
ASN00023034,-34.9524,138.5204,2.0,ADELAIDE_AIRPORT,AS
ASN00023037,-34.7833,138.6242,16.0,ADELAIDE_PARAFIELD_PLANT_INTR,AS
ASN00023057,-34.8533,138.6517,77.0,ADELAIDE_NORTHFIELD_RESEARCH,AS
ASN00023083,-34.7111,138.6222,16.5,EDINBURGH_RAAF,AS
ASN00023090,-34.9211,138.6216,48.0,ADELAIDE_KENT_TOWN,AS
ASN00023122,-34.5106,138.6763,65.0,ROSEWORTHY_AWS,AS
ASN00023307,-34.3412,138.9155,245.0,KAPUNDA,AS
ASN00023321,-34.4767,139.0047,274.0,NURIOOTPA_COMPARISON,AS
ASN00023343,-34.5519,138.8342,116.0,ROSEDALE_TURRETFIELD_RESEARCH,AS
ASN00023373,-34.4761,139.0056,275.0,NURIOOTPA_VITICULTURAL,AS
ASN00023703,-35.0042,138.6147,305.0,BELAIR_KALYRA,AS
ASN00023733,-35.0639,138.8509,360.0,MOUNT_BARKER,AS
ASN00023745,-35.0333,138.7167,496.2,STIRLING,AS
ASN00023747,-35.256,138.8901,70.0,STRATHALBYN,AS
ASN00023751,-35.555,138.6217,5.0,VICTOR_HARBOR_COMPARISON,AS
ASN00023763,-34.7122,138.9469,395.0,MOUNT_CRAWFORD_FOREST_HEADQUAR,AS
ASN00023785,-35.0,138.7167,496.0,STIRLING_POST_OFFICE,AS
ASN00023801,-34.9482,138.8071,480.0,LENSWOOD_RESEARCH_CENTRE,AS
ASN00023804,-35.5544,138.5997,8.0,VICTOR_HARBOR_ENCOUNTER_BAY,AS
ASN00023842,-34.9784,138.7088,685.0,MOUNT_LOFTY,AS
ASN00023849,-35.5147,138.7989,3.0,GOOLWA_HINDMARSH_ISLAND_MARIN,AS
ASN00023875,-35.5695,138.2864,341.0,PARAWA_SECOND_VALLEY_FOREST_A,AS
ASN00023878,-34.7253,138.9273,525.0,MOUNT_CRAWFORD_MT_CRAWFORD_AW,AS
ASN00023885,-35.1586,138.5057,55.0,NOARLUNGA,AS
ASN00023887,-35.1712,138.6783,365.0,KUITPO_FOREST_RESERVE,AS
ASN00023894,-35.5194,138.8177,11.0,HINDMARSH_ISLAND_AWS,AS
ASN00024002,-34.2833,140.6,65.5,BERRI_IRRIGATION,AS
ASN00024016,-34.1711,140.7494,20.0,RENMARK,AS
ASN00024023,-34.4333,140.6,66.0,LOXTON_RESEARCH_CENTRE,AS
ASN00024024,-34.439,140.5978,30.1,LOXTON_RESEARCH_CENTRE,AS
ASN00024041,-34.1944,139.9378,65.0,WAIKERIE_GOLDEN_HEIGHTS,AS
ASN00024048,-34.1983,140.6766,31.5,RENMARK_AERO,AS
ASN00024511,-34.1754,139.0847,415.0,EUDUNDA,AS
ASN00024518,-35.6902,139.3375,3.0,MENINGIE,AS
ASN00024521,-35.1234,139.2592,33.0,MURRAY_BRIDGE_COMPARISON,AS
ASN00024536,-35.2546,139.4542,21.0,TAILEM_BEND,AS
ASN00024580,-35.2836,138.8934,58.0,STRATHALBYN_RACECOURSE,AS
ASN00024584,-35.065,139.2273,45.0,MURRAY_BRIDGE_PALLAMANA_AEROD,AS
ASN00025006,-35.09,139.8972,72.0,KAROONDA,AS
ASN00025050,-34.6345,140.2432,68.0,CALIPH,AS
ASN00025507,-36.098,140.3556,29.0,KEITH,AS
ASN00025509,-35.3288,140.5175,99.0,LAMEROO_COMPARISON,AS
ASN00025557,-36.1058,140.3273,27.0,KEITH_MUNKORA,AS
ASN00025562,-35.3778,140.5378,110.1,LAMEROO_AUSTIN_PLAINS,AS
ASN00026005,-38.0573,140.6725,5.0,CAPE_NORTHUMBERLAND,AS
ASN00026013,-36.8803,140.9286,95.0,KYBYBOLITE_RESEARCH_CENTRE,AS
ASN00026016,-36.9731,140.3664,30.0,LUCINDALE_POST_OFFICE,AS
ASN00026019,-37.5575,140.4197,65.0,MOUNT_BURR_FOREST_RESERVE,AS
ASN00026020,-37.8333,140.7833,65.0,MOUNT_GAMBIER_POST_OFFICE,AS
ASN00026021,-37.7473,140.7739,63.0,MOUNT_GAMBIER_AERO,AS
ASN00026023,-36.9564,140.7402,58.0,NARACOORTE,AS
ASN00026026,-37.1628,139.756,3.3,ROBE_COMPARISON,AS
ASN00026045,-37.3,140.8333,59.0,COONAWARRA,AS
ASN00026089,-36.5958,140.4864,37.0,PADTHAWAY,AS
ASN00026091,-37.2906,140.8254,57.0,COONAWARRA,AS
ASN00026095,-36.9655,139.7164,17.0,CAPE_JAFFA_THE_LIMESTONE,AS
ASN00026099,-36.9813,140.727,49.7,NARACOORTE_AERODROME,AS
ASN00026100,-36.6539,140.5212,35.0,PADTHAWAY_SOUTH,AS
ASN00026105,-37.1776,139.8054,3.0,ROBE_AIRFIELD,AS
ASN00027005,-13.9447,143.2006,199.0,COEN_POST_OFFICE,AS
ASN00027006,-13.7642,143.1178,160.5,COEN_AIRPORT_EVAP,AS
ASN00027015,-12.4536,142.6389,40.0,MORETON_TELEGRAPH_STATION,AS
ASN00027021,-10.5831,142.2203,8.0,THURSDAY_ISLAND_TOWNSHIP,AS
ASN00027022,-10.5853,142.21,57.6,THURSDAY_ISLAND_MO,AS
ASN00027042,-12.6267,141.8836,20.0,WEIPA_EASTERN_AVE,AS
ASN00027045,-12.6778,141.9208,18.0,WEIPA_AERO,AS
ASN00027054,-10.0511,143.0686,3.5,COCONUT_ISLAND,AS
ASN00027058,-10.5844,142.29,4.0,HORN_ISLAND,AS
ASN00027073,-13.7606,143.1183,159.3,COEN_AIRPORT,AS
ASN00027075,-12.6167,142.0869,39.3,SCHERGER_RAAF,AS
ASN00028004,-16.0008,144.0758,203.8,PALMERVILLE,AS
ASN00028007,-14.7803,143.5036,79.4,MUSGRAVE,AS
ASN00028008,-12.785,143.3047,18.5,LOCKHART_RIVER_AIRPORT,AS
ASN00029004,-17.7425,139.5475,5.5,BURKETOWN_POST_OFFICE,AS
ASN00029008,-20.7089,140.5192,200.0,CLONCURRY_MCILLWRAITH_ST,AS
ASN00029009,-20.6717,140.5083,189.0,CLONCURRY_AERO,AS
ASN00029012,-18.2044,142.2447,115.5,CROYDON_TOWNSHIP,AS
ASN00029025,-20.6569,141.7458,122.6,JULIA_CREEK_POST_OFFICE,AS
ASN00029028,-17.4561,140.8319,4.9,KARUMBA_AIRPORT,AS
ASN00029038,-15.4818,141.7483,9.6,KOWANYAMA_AIRPORT,AS
ASN00029039,-16.664,139.1837,8.5,MORNINGTON_ISLAND,AS
ASN00029041,-17.6706,141.0672,8.4,NORMANTON_POST_OFFICE,AS
ASN00029058,-20.6672,141.7214,122.5,JULIA_CREEK_AIRPORT,AS
ASN00029063,-17.6872,141.0733,18.4,NORMANTON_AIRPORT,AS
ASN00029077,-17.7483,139.5356,5.7,BURKETOWN_AIRPORT,AS
ASN00029090,-21.0344,141.8008,144.0,TOORAK_RESEARCH_STATION,AS
ASN00029125,-20.7333,139.4833,356.0,MOUNT_ISA_POST_OFFICE,AS
ASN00029126,-20.7361,139.4817,381.0,MOUNT_ISA_MINE,AS
ASN00029127,-20.6778,139.4875,340.3,MOUNT_ISA_AERO,AS
ASN00029139,-17.1142,139.5981,4.0,SWEERS_ISLAND,AS
ASN00029141,-20.6664,140.505,186.0,CLONCURRY_AIRPORT,AS
ASN00029167,-18.7569,138.7056,126.8,CENTURY_MINE,AS
ASN00030018,-18.2922,143.5483,291.7,GEORGETOWN_POST_OFFICE,AS
ASN00030022,-20.8192,144.2333,316.4,HUGHENDEN_AIRPORT,AS
ASN00030024,-20.8447,144.1986,324.0,HUGHENDEN_POST_OFFICE,AS
ASN00030036,-18.1472,144.3183,462.0,MOUNT_SURPRISE_TOWNSHIP,AS
ASN00030045,-20.7289,143.1425,211.1,RICHMOND_POST_OFFICE,AS
ASN00030124,-18.3039,143.5306,301.8,GEORGETOWN_AIRPORT,AS
ASN00030161,-20.7017,143.1167,206.3,RICHMOND_AIRPORT,AS
ASN00031010,-16.9333,145.7833,2.0,CAIRNS_POST_OFFICE,AS
ASN00031011,-16.8736,145.7458,2.2,CAIRNS_AERO,AS
ASN00031016,-15.4633,145.25,6.0,COOKTOWN_POST_OFFICE,AS
ASN00031017,-15.4486,145.1861,14.0,COOKTOWN_MISSION_STRIP,AS
ASN00031029,-17.5851,145.3869,918.0,HERBERTON_WHITE_ST,AS
ASN00031034,-17.215,145.5656,697.0,KAIRI_RESEARCH_STATION,AS
ASN00031037,-16.3842,145.5592,2.9,LOW_ISLES_LIGHTHOUSE,AS
ASN00031052,-16.484,145.4643,14.0,PORT_DOUGLASWARNER_ST,AS
ASN00031066,-16.995,145.4253,400.0,MAREEBA_QWRC,AS
ASN00031083,-17.84,145.5956,760.0,KOOMBOOLOOMBA_DAM,AS
ASN00031084,-16.9267,146.0033,124.0,FITZROY_ISLAND_LIGHTHOUSE,AS
ASN00031108,-17.1347,145.4281,594.0,WALKAMIN_RESEARCH_STATION,AS
ASN00031192,-16.7614,145.9719,3.0,GREEN_ISLAND,AS
ASN00031209,-15.4461,145.1861,4.8,COOKTOWN_AIRPORT,AS
ASN00031210,-17.0672,145.4283,471.9,MAREEBA_AIRPORT,AS
ASN00031213,-14.9672,145.3106,18.5,CAPE_FLATTERY,AS
ASN00032004,-18.2553,146.0197,4.5,CARDWELL_MARINE_PDE,AS
ASN00032005,-19.1833,147.0167,58.0,CAPE_CLEVELAND_LIGHTHOUSE,AS
ASN00032025,-17.5249,146.0345,10.0,INNISFAIL,AS
ASN00032037,-17.6053,145.9972,18.3,SOUTH_JOHNSTONE_EXP_STN,AS
ASN00032040,-19.2483,146.7661,4.3,TOWNSVILLE_AERO,AS
ASN00032061,-17.5333,145.9667,40.0,BOTTOM_OF_PIN_GIN_HILL,AS
ASN00032078,-18.6494,146.1769,11.8,INGHAM_COMPOSITE,AS
ASN00032141,-18.5203,146.3861,10.0,LUCINDA_POINT,AS
ASN00033001,-19.5775,147.4075,10.7,BURDEKIN_SHIRE_COUNCIL,AS
ASN00033002,-19.6169,147.3758,10.0,AYR_DPI_RESEARCH_STN,AS
ASN00033007,-20.0167,148.25,6.0,BOWEN_POST_OFFICE,AS
ASN00033013,-20.5534,147.8464,196.0,COLLINSVILLE_POST_OFFICE,AS
ASN00033045,-21.1706,149.1794,4.7,MACKAY_AERO,AS
ASN00033046,-21.15,149.1833,11.0,MACKAY_POST_OFFICE,AS
ASN00033047,-21.1642,149.1192,13.0,TE_KOWAI_EXP_STN,AS
ASN00033058,-21.6667,150.2167,58.0,PINE_ISLET_LIGHTHOUSE,AS
ASN00033065,-22.3458,149.5356,17.8,ST_LAWRENCE_POST_OFFICE,AS
ASN00033077,-23.0967,150.7342,75.0,PACIFIC_HEIGHTS,AS
ASN00033090,-20.0464,147.2739,45.4,MILLAROO_DPI,AS
ASN00033106,-20.3658,148.9536,58.7,HAMILTON_ISLAND_AIRPORT,AS
ASN00033119,-21.1172,149.2169,30.3,MACKAY_MO,AS
ASN00033195,-22.4703,150.1786,27.6,WILLIAMSON,AS
ASN00033210,-22.3472,149.5242,9.2,ST_LAWRENCE,AS
ASN00033247,-20.4925,148.555,19.7,PROSERPINE_AIRPORT,AS
ASN00033255,-20.3531,148.9508,22.6,HAMILTON_ISLAND_AIRPORT,AS
ASN00033257,-20.0151,148.2152,5.0,BOWEN_AIRPORT,AS
ASN00033294,-23.1364,150.7506,5.5,YEPPOON_THE_ESPLANADE,AS
ASN00033295,-19.4569,147.4833,7.5,ALVA_BEACH,AS
ASN00033307,-19.4167,146.5364,556.0,WOOLSHED,AS
ASN00033308,-22.7433,150.6578,31.0,SAMUEL_HILL_AERO,AS
ASN00034002,-20.0781,146.2614,309.8,CHARTERS_TOWERS_POST_OFFICE,AS
ASN00034038,-21.9947,148.0308,260.0,MORANBAH_WATER_TREATMENT_PLANT,AS
ASN00034084,-20.0464,146.2708,289.8,CHARTERS_TOWERS_AIRPORT,AS
ASN00035019,-22.8239,147.6425,260.0,CLERMONT_SIRIUS_ST,AS
ASN00035027,-23.5267,148.1617,178.9,EMERALD_POST_OFFICE,AS
ASN00035059,-24.4619,148.6261,214.0,ROLLESTON,AS
ASN00035065,-24.123,148.0856,344.5,SPRINGSURE_COMET_ST,AS
ASN00035069,-24.8819,146.2564,395.1,TAMBO_POST_OFFICE,AS
ASN00035070,-25.6408,149.7958,199.0,TAROOM_POST_OFFICE,AS
ASN00035149,-24.8353,149.8003,168.0,BRIGALOW_RESEARCH_STN,AS
ASN00035264,-23.5694,148.1756,189.4,EMERALD_AIRPORT,AS
ASN00036007,-23.5544,145.2883,266.9,BARCALDINE_POST_OFFICE,AS
ASN00036026,-24.2591,144.4406,203.0,ISISFORD_POST_OFFICE,AS
ASN00036030,-23.45,144.25,191.0,LONGREACH_POST_OFFICE,AS
ASN00036031,-23.4372,144.2769,192.2,LONGREACH_AERO,AS
ASN00036034,-24.4303,145.4306,281.3,BLACKALL_AIRPORT,AS
ASN00036047,-21.95,146.9517,195.0,TWIN_HILLS_POST_OFFICE,AS
ASN00036143,-24.4214,145.4672,284.0,BLACKALL_TOWNSHIP,AS
ASN00036167,-23.4372,144.2769,192.2,LONGREACH_COMPARISON,AS
ASN00037010,-19.9225,138.1214,231.2,CAMOOWEAL_TOWNSHIP,AS
ASN00037034,-21.8125,139.9267,288.4,THE_MONUMENT_AIRPORT,AS
ASN00037036,-21.84,140.8925,266.2,TREPELL_AIRPORT,AS
ASN00037039,-22.3617,143.0836,192.2,WINTON_AIRPORT,AS
ASN00037043,-21.6119,138.3136,174.0,URANDANGI,AS
ASN00037051,-22.3908,143.0386,181.9,WINTON_POST_OFFICE,AS
ASN00038000,-24.3597,139.4714,91.4,BEDOURIE_POLICE_STATION,AS
ASN00038002,-25.9003,139.3486,46.5,BIRDSVILLE_POLICE_STATION,AS
ASN00038003,-22.9117,139.9039,161.8,BOULIA_AIRPORT,AS
ASN00038024,-25.4228,142.6564,126.3,WINDORAH_POST_OFFICE,AS
ASN00038026,-25.8975,139.3472,46.6,BIRDSVILLE_AIRPORT,AS
ASN00039004,-24.1819,149.8117,100.0,BARALABA_POST_OFFICE,AS
ASN00039006,-24.3789,150.5164,175.0,BILOELA_DPI,AS
ASN00039014,-24.5333,151.4667,602.0,BULBURIN_FORESTRY,AS
ASN00039015,-24.8667,152.3467,14.0,BUNDABERG_POST_OFFICE,AS
ASN00039018,-24.0222,151.7642,89.0,BUSTARD_HEAD_LIGHTHOUSE,AS
ASN00039023,-23.4833,151.2333,76.0,CAPE_CAPRICORN_LIGHTHOUSE,AS
ASN00039025,-25.2361,152.2781,109.0,CHILDERS_POST_OFFICE,AS
ASN00039039,-25.6258,151.6094,105.7,GAYNDAH_POST_OFFICE,AS
ASN00039057,-24.6925,151.3047,355.0,KALPOWAR_FORESTRY,AS
ASN00039059,-24.1116,152.7161,3.9,LADY_ELLIOT_ISLAND,AS
ASN00039066,-25.6167,151.6156,110.9,GAYNDAH_AIRPORT,AS
ASN00039069,-23.6286,150.3867,248.0,WALTERHALL,AS
ASN00039083,-23.3753,150.4775,10.4,ROCKHAMPTON_AERO,AS
ASN00039085,-24.7298,153.2089,109.0,SANDY_CAPE_LIGHTHOUSE,AS
ASN00039089,-24.4935,150.5709,193.1,THANGOOL_AIRPORT,AS
ASN00039104,-24.8642,151.1247,239.0,MONTO_TOWNSHIP,AS
ASN00039122,-23.4422,151.9131,3.3,HERON_ISLAND_RES_STN,AS
ASN00039123,-23.8553,151.2628,74.5,GLADSTONE_RADAR,AS
ASN00039128,-24.8885,152.3235,27.0,BUNDABERG_AERO,AS
ASN00039130,-23.1833,151.9,1.0,NORTH_REEF_LIGHTHOUSE,AS
ASN00039171,-25.6875,150.8689,260.0,NARAYEN_RES_STN,AS
ASN00039314,-24.1542,151.8875,34.2,SEVENTEEN_SEVENTY,AS
ASN00039322,-23.5293,151.2763,19.8,RUNDLE_ISLAND,AS
ASN00039326,-23.8697,151.2214,16.6,GLADSTONE_AIRPORT,AS
ASN00040004,-27.6297,152.7111,24.2,AMBERLEY_AMO,AS
ASN00040040,-26.8017,153.15,46.0,CALOUNDRA_SIGNAL_STATION,AS
ASN00040043,-27.0314,153.4661,99.9,CAPE_MORETON_LIGHTHOUSE,AS
ASN00040062,-26.8094,152.87,200.0,CROHAMHURST,AS
ASN00040068,-25.9319,153.1906,95.6,DOUBLE_ISLAND_POINT_LIGHTHOUSE,AS
ASN00040082,-27.5436,152.3375,97.0,UNIVERSITY_OF_QUEENSLAND_GATTO,AS
ASN00040093,-26.1831,152.6414,64.5,GYMPIE,AS
ASN00040101,-27.6117,152.7608,39.9,IPSWICH,AS
ASN00040112,-26.5544,151.8456,441.9,KINGAROY_PRINCE_STREET,AS
ASN00040121,-26.7528,152.8519,425.0,MALENY_TAMARIND_ST,AS
ASN00040126,-25.5161,152.7156,10.3,MARYBOROUGH,AS
ASN00040158,-26.6756,151.9939,375.0,NANANGO_WILLS_ST,AS
ASN00040189,-27.1147,152.555,113.0,SOMERSET_DAM,AS
ASN00040190,-27.9832,153.4054,17.0,SOUTHPORT_RIDGEWAY_AVE,AS
ASN00040197,-27.9695,153.1952,515.0,MT_TAMBORINE_FERN_ST,AS
ASN00040209,-27.4361,153.5456,41.0,POINT_LOOKOUT,AS
ASN00040211,-27.5717,153.0078,12.5,ARCHERFIELD_AIRPORT,AS
ASN00040214,-27.4778,153.0306,38.0,BRISBANE_REGIONAL_OFFICE,AS
ASN00040223,-27.4178,153.1142,4.0,BRISBANE_AERO,AS
ASN00040241,-27.3617,152.8861,52.7,SAMFORD_CSIRO,AS
ASN00040242,-27.3233,153.07,1.0,SANDGATE_POST_OFFICE,AS
ASN00040264,-26.3919,153.0408,8.3,TEWANTIN_POST_OFFICE,AS
ASN00040282,-26.6431,152.9392,32.5,NAMBOUR_DPI,AS
ASN00040284,-26.9586,152.9619,48.0,BEERBURRUM_FOREST_STATION,AS
ASN00040288,-28.1661,153.5036,5.0,COOLANGATTA_AERO,AS
ASN00040308,-27.3342,152.7717,618.0,MT_GLORIOUS_FAHEY_RD,AS
ASN00040405,-25.322,152.8817,13.0,HERVEY_BAY_AIRPORT,AS
ASN00040428,-25.655,151.745,131.0,BRIAN_PASTURES,AS
ASN00040436,-27.5456,152.3289,98.0,GATTON_QDPI_RESEARCH_STN,AS
ASN00040454,-27.8333,153.0,20.0,GLENLOGAN_FIELD_STATION,AS
ASN00040555,-25.9714,152.8608,80.0,TOOLARA_KELLY,AS
ASN00040651,-26.6644,152.4606,523.0,JIMNA_FORESTRY,AS
ASN00040697,-27.245,153.1006,25.0,REDCLIFFE_COUNCIL,AS
ASN00040717,-28.1681,153.5053,4.0,COOLANGATTA,AS
ASN00040764,-27.939,153.4283,3.0,GOLD_COAST_SEAWAY,AS
ASN00040842,-27.3917,153.1292,4.5,BRISBANE_AERO,AS
ASN00040854,-27.6839,153.1947,14.0,LOGAN_CITY_WATER_TREATMENT,AS
ASN00040856,-25.9007,153.0891,14.4,RAINBOW_BEACH,AS
ASN00040861,-26.6006,153.0903,3.3,MAROOCHYDORE_AERO,AS
ASN00040908,-26.3911,153.0403,6.4,TEWANTIN_RSL_PARK,AS
ASN00040913,-27.4808,153.0389,8.1,BRISBANE,AS
ASN00040922,-26.5737,151.8398,433.7,KINGAROY_AIRPORT,AS
ASN00040958,-27.2169,153.0922,12.6,REDCLIFFE,AS
ASN00041011,-27.7072,151.865,458.0,CAMBOOYA_POST_OFFICE,AS
ASN00041023,-27.1839,151.2639,343.8,DALBY_POST_OFFICE,AS
ASN00041038,-28.5481,150.3075,217.2,GOONDIWINDI_POST_OFFICE,AS
ASN00041044,-28.2061,152.1003,475.4,HERMITAGE,AS
ASN00041056,-28.3344,152.2953,507.0,KILLARNEY_POST_OFFICE,AS
ASN00041082,-27.7156,151.6333,608.0,PITTSWORTH,AS
ASN00041095,-28.6617,151.9339,787.0,STANTHORPE_LESLIE_PARADE,AS
ASN00041100,-28.8544,151.1681,297.0,TEXAS_POST_OFFICE,AS
ASN00041103,-27.5836,151.9317,691.0,TOOWOOMBA,AS
ASN00041116,-28.9231,151.9306,875.0,WALLANGARRA_POST_OFFICE,AS
ASN00041175,-28.6217,151.9533,871.6,APPLETHORPE,AS
ASN00041176,-28.2247,152.0258,477.1,WARWICK_DRAGON_ST,AS
ASN00041341,-28.5,150.9333,265.0,INGLEWOOD_TOBACCO_RES,AS
ASN00041359,-27.4034,151.7413,405.7,OAKEY_AERO,AS
ASN00041521,-28.5211,150.3256,217.6,GOONDIWINDI_AIRPORT,AS
ASN00041522,-27.1605,151.2634,343.9,DALBY_AIRPORT,AS
ASN00041525,-28.2061,152.1003,475.4,WARWICK,AS
ASN00041529,-27.5425,151.9134,640.9,TOOWOOMBA_AIRPORT,AS
ASN00042023,-26.6581,150.1844,302.0,MILES_POST_OFFICE,AS
ASN00042112,-26.6569,150.1819,304.8,MILES_CONSTANCE_STREET,AS
ASN00043015,-25.8428,148.5669,393.0,INJUNE_POST_OFFICE,AS
ASN00043020,-26.4888,147.9777,336.5,MITCHELL_POST_OFFICE,AS
ASN00043030,-26.5719,148.7897,299.4,ROMA_POST_OFFICE,AS
ASN00043034,-28.0361,148.5814,200.8,ST_GEORGE_POST_OFFICE,AS
ASN00043035,-27.159,149.0703,245.7,SURAT,AS
ASN00043091,-26.5442,148.7778,303.2,ROMA_AIRPORT,AS
ASN00043109,-28.0489,148.5942,198.5,ST_GEORGE_AIRPORT,AS
ASN00044010,-28.0336,147.4803,182.9,BOLLON_MARY_ST,AS
ASN00044021,-26.4139,146.2558,301.6,CHARLEVILLE_AERO,AS
ASN00044022,-26.4025,146.2381,293.5,CHARLEVILLE_POST_OFFICE,AS
ASN00044026,-28.0706,145.6808,188.7,CUNNAMULLA_POST_OFFICE,AS
ASN00044036,-28.1,145.9833,191.7,GILRUTH_PLAINS,AS
ASN00045000,-25.9167,144.6,229.0,ADAVALE_POST_OFFICE,AS
ASN00045009,-27.4008,141.8114,114.5,BALLERA_GAS_FIELD,AS
ASN00045015,-26.6125,144.2578,199.6,QUILPIE_AIRPORT,AS
ASN00045017,-27.9978,143.8197,128.7,THARGOMINDAH_POST_OFFICE,AS
ASN00045025,-27.9867,143.815,130.9,THARGOMINDAH_AIRPORT,AS
ASN00046012,-31.5194,143.385,94.3,WILCANNIA_AERODROME_AWS,AS
ASN00046037,-29.4345,142.0098,183.0,TIBOOBURRA_POST_OFFICE,AS
ASN00046042,-30.8506,143.0893,151.0,WHITE_CLIFFS_POST_OFFICE,AS
ASN00046043,-31.5631,143.3747,75.0,WILCANNIAREID_ST,AS
ASN00046126,-29.4448,142.0567,176.4,TIBOOBURRA_AIRPORT,AS
ASN00046128,-31.0867,141.7017,181.0,FOWLERS_GAP_AWS,AS
ASN00046129,-30.8517,143.0742,158.0,WHITE_CLIFFS_AWS,AS
ASN00047007,-31.9759,141.4676,315.0,BROKEN_HILL_PATTON_STREET,AS
ASN00047016,-34.0398,141.2652,43.0,LAKE_VICTORIA_STORAGE,AS
ASN00047019,-32.3937,142.4173,61.0,MENINDEE_POST_OFFICE,AS
ASN00047029,-33.3856,142.5696,53.0,POONCARIE_MAIL_AGENCY,AS
ASN00047031,-31.8803,141.593,238.0,BROKEN_HILL_STEPHENS_CREEK_RE,AS
ASN00047048,-32.0012,141.4694,281.3,BROKEN_HILL_AIRPORT_AWS,AS
ASN00047053,-34.1065,141.9189,37.0,WENTWORTH_POST_OFFICE,AS
ASN00047102,-31.9333,141.5333,252.0,BROKEN_HILL_RFDS,AS
ASN00048013,-30.0917,145.9358,106.0,BOURKE_POST_OFFICE,AS
ASN00048015,-29.9614,146.8651,115.0,BREWARRINA_HOSPITAL,AS
ASN00048027,-31.484,145.8294,260.0,COBAR_MO,AS
ASN00048030,-31.5,145.8,250.5,COBAR_POST_OFFICE,AS
ASN00048031,-29.5407,148.5818,145.0,COLLARENEBRI_ALBERT_ST,AS
ASN00048079,-29.7029,144.1482,108.0,WANAARING_POST_OFFICE,AS
ASN00048237,-31.5389,145.7964,218.0,COBAR_AIRPORT_AWS,AS
ASN00048243,-29.431,147.9722,154.0,LIGHTNING_RIDGE_VISITORS_INFOR,AS
ASN00048245,-30.0362,145.9521,107.3,BOURKE_AIRPORT_AWS,AS
ASN00049000,-32.8831,144.3088,100.0,IVANHOE_AERODROME_AWS,AS
ASN00049002,-34.6398,143.561,61.0,BALRANALD_RSL,AS
ASN00049013,-34.5833,142.7333,61.0,EUSTON_POST_OFFICE,AS
ASN00049019,-32.8999,144.2995,85.0,IVANHOE_POST_OFFICE,AS
ASN00049032,-32.8345,145.8772,223.0,MOUNT_HOPE_CYPRESS_GROVE,AS
ASN00050014,-33.0818,147.1524,220.0,CONDOBOLIN_RETIREMENT_VILLAGE,AS
ASN00050017,-33.9382,147.1962,257.0,WEST_WYALONG_AIRPORT_AWS,AS
ASN00050031,-32.7235,148.1902,285.0,PEAK_HILL_POST_OFFICE,AS
ASN00050037,-32.6309,147.5659,239.0,TULLAMORE_OLDPOST_OFFICE,AS
ASN00050052,-33.0664,147.2283,195.0,CONDOBOLIN_AG_RESEARCH_STN,AS
ASN00050102,-33.0833,147.15,199.0,CONDOBOLIN_SOIL_CONSERVATION,AS
ASN00050137,-33.0682,147.2133,192.6,CONDOBOLIN_AIRPORT_AWS,AS
ASN00051010,-30.9753,148.3806,180.0,COONAMBLE_COMPARISON,AS
ASN00051018,-31.7055,148.6625,282.0,GILGANDRA_CHELMSFORD_AVE,AS
ASN00051039,-31.5495,147.1961,173.0,NYNGAN_AIRPORT,AS
ASN00051042,-30.9252,147.869,152.0,QUAMBONE_STATION,AS
ASN00051048,-32.0322,147.9826,222.0,TRANGIE_POST_OFFICE,AS
ASN00051049,-31.9861,147.9489,215.0,TRANGIE_RESEARCH_STATION_AWS,AS
ASN00051161,-30.9776,148.3798,181.3,COONAMBLE_AIRPORT_AWS,AS
ASN00052020,-28.9786,148.9899,160.0,MUNGINDI_POST_OFFICE,AS
ASN00052026,-30.0236,148.1218,133.0,WALGETT_COUNCIL_DEPOT,AS
ASN00052088,-30.0372,148.1223,133.0,WALGETT_AIRPORT_AWS,AS
ASN00053002,-30.9469,149.0654,302.0,BARADINE_FORESTRY,AS
ASN00053027,-29.5,149.9,207.3,MOREE_POST_OFFICE,AS
ASN00053030,-30.3401,149.7552,212.0,NARRABRI_WEST_POST_OFFICE,AS
ASN00053048,-29.4819,149.8383,212.1,MOREE_COMPARISON,AS
ASN00053115,-29.4914,149.8458,213.0,MOREE_AERO,AS
ASN00054003,-30.3781,150.6096,500.0,BARRABA_POST_OFFICE,AS
ASN00054004,-29.8673,150.5715,296.0,BINGARA_POST_OFFICE,AS
ASN00054029,-29.5416,150.5754,320.0,WARIALDA_POST_OFFICE,AS
ASN00054038,-30.3154,149.8302,229.0,NARRABRI_AIRPORT_AWS,AS
ASN00054104,-29.3899,151.2448,462.0,PINDARI_DAM,AS
ASN00055023,-30.9841,150.254,285.0,GUNNEDAH_POOL,AS
ASN00055024,-31.0261,150.2687,307.0,GUNNEDAH_RESOURCE_CENTRE,AS
ASN00055049,-31.5086,150.6792,390.0,QUIRINDI_POST_OFFICE,AS
ASN00055054,-31.0867,150.8467,404.0,TAMWORTH_AIRPORT,AS
ASN00055136,-30.9672,151.3451,910.0,WOOLBROOK_DANGLEMAH_ROAD,AS
ASN00055202,-30.9537,150.2494,262.6,GUNNEDAH_AIRPORT_AWS,AS
ASN00055325,-31.0742,150.8362,394.9,TAMWORTH_AIRPORT_AWS,AS
ASN00056002,-30.5167,151.6681,980.0,ARMIDALE_RADIO_STATION_2AD,AS
ASN00056006,-30.1711,151.0757,654.0,BUNDARRA_POST_OFFICE,AS
ASN00056011,-29.7368,151.7366,1062.0,GLEN_INNES_POST_OFFICE,AS
ASN00056013,-29.6953,151.6936,1060.0,GLEN_INNES_AG_RESEARCH_STN,AS
ASN00056016,-30.2204,151.6714,1325.0,GUYRA_POST_OFFICE,AS
ASN00056017,-29.7783,151.1114,584.0,INVERELL_COMPARISON,AS
ASN00056018,-29.7752,151.0819,664.0,INVERELL_RESEARCH_CENTRE,AS
ASN00056021,-29.9167,151.2167,870.0,MOUNT_TOPPER_STATE_FOREST,AS
ASN00056032,-29.0479,152.0172,838.0,TENTERFIELD_FEDERATION_PARK,AS
ASN00056034,-30.6437,151.4906,1012.0,URALLA_DUMARESQ_ST,AS
ASN00056035,-30.9853,151.5942,1050.0,WALCHA_POST_OFFICE,AS
ASN00056037,-30.5264,151.6697,987.0,ARMIDALE_TREE_GROUP_NURSERY,AS
ASN00056229,-30.2126,151.6787,1332.0,GUYRA_HOSPITAL,AS
ASN00056238,-30.5273,151.6158,1079.0,ARMIDALE_AIRPORT_AWS,AS
ASN00056242,-29.7796,151.1121,582.0,INVERELL_RAGLAN_ST,AS
ASN00056243,-29.678,151.694,1044.3,GLEN_INNES_AIRPORT_AWS,AS
ASN00057009,-28.9,152.3,670.6,GIRARD_STATE_FOREST,AS
ASN00057017,-30.6167,152.1833,1030.0,JEOGLA_JEOLGA_OLDSFSITE,AS
ASN00057021,-28.4667,152.55,365.8,URBENVILLE_STATE_FOREST,AS
ASN00057082,-29.646,152.0936,970.0,GLEN_INNES_MT_MITCHELL_FOREST,AS
ASN00057095,-28.7551,152.4507,555.0,TABULAM_MUIRNE,AS
ASN00058009,-28.6388,153.6361,95.0,BYRON_BAY_CAPE_BYRON_LIGHTHOU,AS
ASN00058012,-29.4333,153.3633,27.4,YAMBA_PILOT_STATION,AS
ASN00058013,-28.3167,153.4333,5.0,CONDONG_SUGAR_MILL,AS
ASN00058027,-29.4227,153.2533,2.0,HARWOOD_ISLAND_HARWOOD_SUGAR,AS
ASN00058037,-28.807,153.2628,11.0,LISMORE_CENTRE_STREET,AS
ASN00058050,-28.4833,152.9167,152.0,ROSEBERRY_STATE_FOREST_NURSERY,AS
ASN00058052,-29.2,153.2667,18.3,TABBIMOBILE_STATE_FOREST,AS
ASN00058057,-28.36,153.2078,55.0,TYALGUM_COODGEE_STREET,AS
ASN00058060,-28.5988,153.3783,370.0,WHIAN_WHIAN_RUMMERY_PARK,AS
ASN00058063,-28.8755,153.0493,26.0,CASINO_AIRPORT,AS
ASN00058065,-29.0167,153.4333,6.0,BROADWATER_SUGAR_MILL,AS
ASN00058077,-29.6224,152.9605,25.0,GRAFTON_RESEARCH_STN,AS
ASN00058130,-29.6823,152.9278,9.0,GRAFTON_OLYMPIC_POOL,AS
ASN00058131,-28.8521,153.4556,140.0,ALSTONVILLE_TROPICAL_FRUIT_RES,AS
ASN00058158,-28.3395,153.3809,8.0,MURWILLUMBAH_BRAY_PARK,AS
ASN00058161,-29.7583,153.0297,25.1,GRAFTON_AIRPORT_AWS,AS
ASN00058198,-28.8353,153.5585,1.3,BALLINA_AIRPORT_AWS,AS
ASN00058208,-28.8775,153.052,20.9,CASINO_AIRPORT_AWS,AS
ASN00058212,-29.183,153.3964,62.5,EVANS_HEAD_RAAF_BOMBING_RANGE,AS
ASN00058214,-28.8343,153.2616,8.7,LISMORE_AIRPORT_AWS,AS
ASN00058216,-28.6399,153.6358,95.0,BYRON_BAY_CAPE_BYRON_AWS,AS
ASN00058221,-28.7853,153.3409,105.0,LISMORE_RICHMOND_HILL,AS
ASN00059001,-30.4519,152.8979,15.0,BELLINGEN_POST_OFFICE,AS
ASN00059004,-30.25,152.85,485.0,BROOKLANA_BOBO_NURSERY,AS
ASN00059007,-31.0711,152.7717,13.0,KEMPSEY_AIRPORT_AWS,AS
ASN00059008,-30.0903,152.6333,600.0,CLOUDS_CREEK_STATE_FOREST,AS
ASN00059017,-31.077,152.8235,10.0,KEMPSEY_WIDE_STREET,AS
ASN00059030,-30.9225,153.087,117.0,SOUTH_WEST_ROCKS_SMOKY_CAPE_L,AS
ASN00059040,-30.3107,153.1187,5.0,COFFS_HARBOUR_MO,AS
ASN00059140,-30.3442,152.7187,746.0,DORRIGO_OLD_CORAMBA_RD,AS
ASN00060009,-32.2,152.3167,38.1,COOLONGALOOK_STATE_FOREST,AS
ASN00060013,-32.1756,152.5089,4.0,FORSTERTUNCURRY_RVCP,AS
ASN00060023,-31.8714,152.6827,6.0,HARRINGTON_OXLEY_ANCHORAGE_CA,AS
ASN00060026,-31.4399,152.911,20.0,PORT_MACQUARIE_BELLEVUE_GARDE,AS
ASN00060030,-31.8986,152.4834,5.0,TAREE_RADIO_STATION_2RE,AS
ASN00060085,-31.3865,152.2482,155.0,YARRAS_MOUNT_SEAVIEW,AS
ASN00060139,-31.4336,152.8655,4.2,PORT_MACQUARIE_AIRPORT_AWS,AS
ASN00060141,-31.8896,152.512,8.0,TAREE_AIRPORT_AWS,AS
ASN00061008,-32.7,151.5,9999.0,CAMPBELLS_HILL,AS
ASN00061009,-32.8272,151.3661,80.0,CESSNOCK_POST_OFFICE,AS
ASN00061029,-33.2333,151.2,312.0,KULNURA_WILLIAM_ROAD,AS
ASN00061034,-32.7483,151.5833,12.0,EAST_MAITLAND_BOWLING_CLUB,AS
ASN00061051,-31.7651,150.8363,466.0,MURRURUNDI_POST_OFFICE,AS
ASN00061054,-32.7103,152.1612,25.0,NELSON_BAY_NELSON_HEAD,AS
ASN00061055,-32.9185,151.7985,33.0,NEWCASTLE_NOBBYS_SIGNAL_STATIO,AS
ASN00061057,-33.1,151.25,152.4,OLNEY_STATE_FOREST,AS
ASN00061069,-32.0458,150.8708,213.0,SCONE_PHILIP_STREET,AS
ASN00061076,-32.618,151.8877,75.0,RAYMOND_TERRACE_WALLAROO_STAT,AS
ASN00061078,-32.7932,151.8359,9.0,WILLIAMTOWN_RAAF,AS
ASN00061086,-32.4972,150.9093,90.0,JERRYS_PLAINS_POST_OFFICE,AS
ASN00061087,-33.3949,151.3289,20.0,GOSFORD_NARARA_RESEARCH_STATI,AS
ASN00061089,-32.0632,150.9272,216.0,SCONE_SCS,AS
ASN00061223,-32.9131,151.75,8.0,MARYVILLE,AS
ASN00061242,-32.8093,151.349,62.0,CESSNOCK_NULKABA,AS
ASN00061250,-32.6296,151.5919,30.0,PATERSON_TOCAL_AWS,AS
ASN00061260,-32.7886,151.3377,61.0,CESSNOCK_AIRPORT_AWS,AS
ASN00061273,-33.2815,151.5759,27.0,NORAH_HEAD_LIGHTHOUSE,AS
ASN00061275,-32.6133,151.1717,73.1,SINGLETON_ARMY,AS
ASN00061288,-32.3322,151.4595,200.0,LOSTOCK_DAM,AS
ASN00061351,-33.3102,151.2443,280.0,PEATS_RIDGE_WARATAH_ROAD,AS
ASN00061363,-32.0335,150.8264,221.4,SCONE_AIRPORT_AWS,AS
ASN00061366,-33.2815,151.5766,18.8,NORAH_HEAD_AWS,AS
ASN00061375,-33.2894,151.2107,305.0,MANGROVE_MOUNTAIN_AWS,AS
ASN00061388,-32.7427,151.5683,5.0,MAITLAND_VISITORS_CENTRE,AS
ASN00061390,-32.8905,151.707,21.0,NEWCASTLE_UNIVERSITY,AS
ASN00061392,-31.7416,150.7937,729.4,MURRURUNDI_GAP_AWS,AS
ASN00062009,-31.9963,149.9856,420.0,CASSILIS_DALKEITH,AS
ASN00062013,-32.3634,149.5329,475.0,GULGONG_POST_OFFICE,AS
ASN00062021,-32.5956,149.5956,454.0,MUDGEE_GEORGE_STREET,AS
ASN00062100,-32.7244,150.229,1130.0,NULLO_MOUNTAIN_AWS,AS
ASN00062101,-32.5628,149.6149,471.0,MUDGEE_AIRPORT_AWS,AS
ASN00063004,-33.4167,149.55,704.0,BATHURST_GAOL,AS
ASN00063005,-33.4289,149.5559,713.0,BATHURST_AGRICULTURAL_STATION,AS
ASN00063018,-33.3934,149.0231,987.0,ORANGE_CANOBOLAS_STATE_FOREST,AS
ASN00063019,-33.6167,149.1333,720.2,CARCOAR,AS
ASN00063021,-33.9,148.7,9999.0,COWRA_POST_OFFICE,AS
ASN00063023,-33.8087,148.7071,381.0,COWRA_RESEARCH_CENTRE_EVANS_S,AS
ASN00063033,-34.0111,149.8369,1148.0,GURNANG_STATE_FOREST_OBERON_Y,AS
ASN00063036,-33.8199,150.0227,792.0,OBERON_JENOLAN_CAVES,AS
ASN00063039,-33.7122,150.3087,1015.0,KATOOMBA_MURRI_ST,AS
ASN00063046,-33.45,150.05,975.0,LIDSDALE_STATE_FOREST,AS
ASN00063053,-33.4455,149.1847,960.0,MILLTHORPE_INALA,AS
ASN00063056,-33.5917,150.2544,1064.0,MOUNT_VICTORIA_MT_VICTORIA_S,AS
ASN00063058,-33.0934,149.128,920.0,MULLION_CREEK_MULLION_RANGE_F,AS
ASN00063062,-33.3675,150.2383,1050.0,LITHGOW_NEWNES_FOREST_CENTRE,AS
ASN00063063,-33.6774,149.8374,1095.0,OBERON_SPRINGBANK,AS
ASN00063065,-33.2833,149.1,863.2,ORANGE_POST_OFFICE,AS
ASN00063077,-33.7065,150.5848,320.0,SPRINGWOOD_BOWLING_CLUB,AS
ASN00063224,-33.4901,150.1498,950.0,LITHGOW_BIRDWOOD_ST,AS
ASN00063231,-33.3815,149.1229,948.0,ORANGE_AIRPORT_COMPARISON,AS
ASN00063254,-33.3211,149.0828,922.0,ORANGE_AGRICULTURAL_INSTITUTE,AS
ASN00063291,-33.412,149.654,744.5,BATHURST_AIRPORT_AWS,AS
ASN00063292,-33.6185,150.2741,1080.0,MOUNT_BOYCE_AWS,AS
ASN00063303,-33.3813,149.127,947.4,ORANGE_AIRPORT_AWS,AS
ASN00064008,-31.2712,149.2714,505.0,COONABARABRAN_NAMOI_STREET,AS
ASN00064009,-32.0159,149.3964,388.0,DUNEDOO_POST_OFFICE,AS
ASN00064017,-31.3304,149.2699,643.0,COONABARABRAN_AIRPORT_AWS,AS
ASN00065006,-33.572,148.6619,300.0,CANOWINDRA_CANOWINDRA_STREET,AS
ASN00065012,-32.2385,148.6089,260.0,DUBBO_DARLING_STREET,AS
ASN00065016,-33.3892,148.0081,240.0,FORBES_CAMP_STREET,AS
ASN00065023,-33.0866,148.8598,565.0,MOLONG_KING_ST,AS
ASN00065026,-33.1419,148.1639,324.0,PARKES_MACARTHUR_STREET,AS
ASN00065034,-32.5635,148.9503,305.0,WELLINGTON_AGROWPLOW,AS
ASN00065035,-32.5059,148.9708,390.0,WELLINGTON_RESEARCH_CENTRE,AS
ASN00065068,-33.1281,148.2428,323.3,PARKES_AIRPORT_AWS,AS
ASN00065070,-32.2206,148.5753,284.0,DUBBO_AIRPORT_AWS,AS
ASN00065091,-33.8451,148.6534,300.0,COWRA_AIRPORT_COMPARISON,AS
ASN00065103,-33.3627,147.9205,230.4,FORBES_AIRPORT_AWS,AS
ASN00065111,-33.8449,148.6497,296.5,COWRA_AIRPORT_AWS,AS
ASN00066037,-33.9465,151.1731,6.0,SYDNEY_AIRPORT_AMO,AS
ASN00066059,-33.6908,151.2253,199.0,TERREY_HILLS_AWS,AS
ASN00066062,-33.8607,151.205,39.0,SYDNEY_OBSERVATORY_HILL,AS
ASN00066078,-34.0517,150.98,140.0,LUCAS_HEIGHTS_ANSTO,AS
ASN00066124,-33.7917,151.0181,55.0,PARRAMATTA_NORTH_MASONS_DRIVE,AS
ASN00066131,-33.8258,151.1556,40.0,RIVERVIEW_OBSERVATORY,AS
ASN00066137,-33.9181,150.9864,6.5,BANKSTOWN_AIRPORT_AWS,AS
ASN00066156,-33.7791,151.1121,65.0,MACQUARIE_PARK_WILLANDRA_VILL,AS
ASN00066160,-33.8959,151.2341,38.0,CENTENNIAL_PARK,AS
ASN00066193,-33.7654,151.1176,51.0,MARSFIELD_MACQUARIE_UNIVERSIT,AS
ASN00066194,-33.9057,151.1134,3.0,CANTERBURY_RACECOURSE_AWS,AS
ASN00066195,-33.8521,151.0646,28.0,SYDNEY_OLYMPIC_PARK_SYDNEY_OL,AS
ASN00066196,-33.8414,151.2633,6.0,SYDNEY_HARBOUR_WEDDING_CAKE_W,AS
ASN00067019,-33.8193,150.9127,61.0,PROSPECT_RESERVOIR,AS
ASN00067021,-33.6165,150.7477,20.0,RICHMONDUWS_HAWKESBURY,AS
ASN00067026,-33.7704,150.9318,50.0,SEVEN_HILLS_COLLINS_ST,AS
ASN00067033,-33.6022,150.7794,19.0,RICHMOND_RAAF,AS
ASN00067035,-33.9272,150.9128,20.0,LIVERPOOLWHITLAM_CENTRE,AS
ASN00067068,-33.8683,150.7278,65.0,BADGERYS_CREEK_MCMASTERS_FSTN,AS
ASN00067084,-33.802,150.7069,93.0,ORCHARD_HILLS_TREATMENT_WORKS,AS
ASN00067105,-33.6004,150.7761,19.0,RICHMOND_RAAF,AS
ASN00067108,-33.8969,150.7281,81.2,BADGERYS_CREEK_AWS,AS
ASN00067113,-33.7195,150.6783,24.7,PENRITH_LAKES_AWS,AS
ASN00067117,-33.9795,150.9254,40.0,HOLSWORTHY_CONTROL_RANGE,AS
ASN00067119,-33.8511,150.8567,100.0,HORSLEY_PARK_EQUESTRIAN_CENTRE,AS
ASN00068005,-34.5,150.4,661.7,BOWRAL_POST_OFFICE,AS
ASN00068034,-35.0936,150.8048,85.0,JERVIS_BAY_POINT_PERPENDICULA,AS
ASN00068038,-34.675,150.8519,10.0,KIAMA_BOWLING_CLUB,AS
ASN00068045,-34.5444,150.3768,675.0,MOSS_VALE_HOSKINS_STREET,AS
ASN00068052,-34.1685,150.6145,165.0,PICTON_COUNCIL_DEPOT,AS
ASN00068053,-34.4772,150.9131,11.0,PORT_KEMBLA_SIGNAL_STATION,AS
ASN00068072,-34.9469,150.5353,109.0,NOWRA_RAN_AIR_STATIONAWS,AS
ASN00068076,-34.9449,150.545,109.0,NOWRA_RAN_AIR_STATION,AS
ASN00068081,-34.0833,150.8167,75.0,CAMPBELLTOWN_SWIMMING_CENTRE,AS
ASN00068102,-34.4869,150.4019,690.0,BOWRAL_PARRY_DRIVE,AS
ASN00068151,-35.0936,150.8049,85.0,JERVIS_BAY_POINT_PERPENDICULA,AS
ASN00068188,-34.403,150.8795,25.0,WOLLONGONG_UNIVERSITY,AS
ASN00068192,-34.0391,150.689,73.9,CAMDEN_AIRPORT_AWS,AS
ASN00068228,-34.3691,150.9291,10.0,BELLAMBI_AWS,AS
ASN00068239,-34.5253,150.4217,678.4,MOSS_VALE_AWS,AS
ASN00068241,-34.5638,150.79,8.0,ALBION_PARK_WOLLONGONG_AIRPOR,AS
ASN00069002,-36.6884,149.838,50.0,BEGA_NEWTOWN_ROAD,AS
ASN00069010,-35.4489,149.799,643.0,BRAIDWOOD_WALLACE_STREET,AS
ASN00069017,-36.2519,150.2275,52.0,MONTAGUE_ISLAND_LIGHTHOUSE,AS
ASN00069018,-35.9093,150.1532,17.0,MORUYA_HEADS_PILOT_STATION,AS
ASN00069021,-37.0667,149.35,675.0,NALBAUGH_STATE_FOREST,AS
ASN00069022,-36.2144,150.1358,25.0,NAROOMA_RVCP,AS
ASN00069049,-35.1165,150.0847,630.0,NERRIGA_COMPOSITE,AS
ASN00069055,-37.2614,150.0497,20.0,GREEN_CAPE_LIGHTHOUSE,AS
ASN00069093,-36.9106,149.9017,2.0,MERIMBULA_AIRPORT_COMPARISON,AS
ASN00069132,-35.4253,149.7835,665.2,BRAIDWOOD_RACECOURSE_AWS,AS
ASN00069134,-35.7234,150.1872,11.0,BATEMANS_BAY_CATALINA_COUNTRY,AS
ASN00069137,-37.2622,150.0504,19.4,GREEN_CAPE_AWS,AS
ASN00069138,-35.3635,150.4827,35.7,ULLADULLA_AWS,AS
ASN00069139,-36.6722,149.8191,41.0,BEGA_AWS,AS
ASN00069147,-36.9077,149.8989,1.5,MERIMBULA_AIRPORT_AWS,AS
ASN00069148,-35.9004,150.1437,4.0,MORUYA_AIRPORT_AWS,AS
ASN00070005,-36.9113,149.2379,705.0,BOMBALA_THERRY_STREET,AS
ASN00070014,-35.3049,149.2014,578.4,CANBERRA_AIRPORT_COMPARISON,AS
ASN00070015,-35.3,149.1,581.0,CANBERRA_FORESTRY,AS
ASN00070025,-34.4578,149.4693,887.0,CROOKWELL_POST_OFFICE,AS
ASN00070034,-34.2739,148.84,500.0,FROGMORE,AS
ASN00070037,-34.75,149.8667,702.0,GOULBURN,AS
ASN00070067,-36.5112,149.2794,1075.0,NIMMITABEL_WASTEWATER_TREATMEN,AS
ASN00070080,-34.4048,149.8197,845.0,TARALGA_POST_OFFICE,AS
ASN00070091,-34.8313,148.9113,520.0,YASS_LINTON_HOSTEL,AS
ASN00070172,-35.75,148.9833,975.4,GUDGENBY,AS
ASN00070206,-35.6333,148.95,924.8,ORRORAL_VALLEY_STADAN,AS
ASN00070217,-36.2939,148.9725,930.0,COOMA_AIRPORT_AWS,AS
ASN00070220,-34.4382,148.7158,488.0,BOOROWA_POST_OFFICE,AS
ASN00070241,-35.5833,148.9833,1116.0,HONEYSUCKLE_CREEK,AS
ASN00070258,-36.2167,149.1333,860.0,COOMA_NORTH_GERINGA_AVENUE,AS
ASN00070263,-34.7495,149.7034,670.0,GOULBURN_TAFE,AS
ASN00070278,-36.2318,149.1243,778.0,COOMA_VISITORS_CENTRE,AS
ASN00070282,-35.2667,149.1167,564.0,CANBERRA_CITY,AS
ASN00070310,-35.4408,148.9422,700.0,TIDBINBILLA_NATURE_RESERVE,AS
ASN00070326,-37.1475,149.1496,790.0,CRAIGIE_BONDI_FOREST_LODGE,AS
ASN00070328,-37.0016,149.2336,760.5,BOMBALA_AWS,AS
ASN00070330,-34.8085,149.7312,640.0,GOULBURN_AIRPORT_AWS,AS
ASN00070339,-35.4184,149.0937,586.7,TUGGERANONG_ISABELLA_PLAINS,AS
ASN00070349,-35.5293,148.7721,1760.0,MOUNT_GININI_AWS,AS
ASN00071003,-36.4335,148.3327,1755.0,CHARLOTTE_PASS_KOSCIUSKO_CHAL,AS
ASN00071010,-35.8833,148.5,1395.0,KIANDRA_CHALET,AS
ASN00071032,-36.4917,148.2859,1957.0,THREDBO_AWS,AS
ASN00071041,-36.5031,148.304,1380.0,THREDBO_VILLAGE,AS
ASN00072000,-35.3077,148.0646,333.0,ADELONG_POST_OFFICE,AS
ASN00072009,-35.8,147.9333,457.2,BROOKFIELD_FOREST_STATION,AS
ASN00072013,-35.65,147.8022,580.0,CARABOST_FOREST_HEADQUARTERS,AS
ASN00072014,-35.65,147.7167,420.0,CARABOST_STATE_FOREST_2,AS
ASN00072023,-36.1039,147.0329,184.0,HUME_RESERVOIR,AS
ASN00072035,-35.5,147.6167,492.9,MURRAGULDRIE_STATE_FOREST_1,AS
ASN00072043,-35.778,148.0141,655.0,TUMBARUMBA_POST_OFFICE,AS
ASN00072046,-35.3333,148.2667,305.0,TUMUT_PLAINS_HOMESDALE,AS
ASN00072052,-35.1667,148.3667,640.1,RED_HILL_STATE_FOREST,AS
ASN00072060,-36.2254,148.1431,337.0,KHANCOBAN_SMHEA,AS
ASN00072091,-35.9383,148.3842,1475.0,CABRAMURRA_SMHEA,AS
ASN00072097,-36.0817,146.955,152.0,ALBURY_PUMPING_STATION,AS
ASN00072146,-36.0692,146.9534,165.0,ALBURY_AIRPORT,AS
ASN00072150,-35.1583,147.4573,212.0,WAGGA_WAGGA_AMO,AS
ASN00072151,-35.1333,147.3667,240.0,WAGGA_WAGGA_KOORINGAL,AS
ASN00072160,-36.069,146.9509,163.5,ALBURY_AIRPORT_AWS,AS
ASN00072161,-35.9371,148.3779,1482.4,CABRAMURRA_SMHEA_AWS,AS
ASN00072162,-36.2304,148.1405,339.3,KHANCOBAN_AWS,AS
ASN00073007,-34.9997,148.5984,390.0,BURRINJUCK_DAM,AS
ASN00073009,-34.6411,148.0236,318.0,COOTAMUNDRA_POST_OFFICE,AS
ASN00073014,-33.9029,148.1718,410.0,GRENFELL_QUONDONG_RD,AS
ASN00073019,-34.8456,147.5714,280.0,JUNEE_TREATMENT_WORKS,AS
ASN00073032,-34.0112,147.7937,250.0,QUANDIALLA_POST_OFFICE,AS
ASN00073038,-34.4061,147.5248,270.0,TEMORA_RESEARCH_STATION,AS
ASN00073054,-33.9262,147.2418,245.0,WYALONG_POST_OFFICE,AS
ASN00073056,-34.3167,148.2967,440.0,YOUNG_POST_OFFICE,AS
ASN00073118,-34.6333,148.05,337.7,COOTAMUNDRA_AERO,AS
ASN00073127,-35.0517,147.3493,219.2,WAGGA_WAGGA_AGRICULTURAL_INSTI,AS
ASN00073128,-35.0778,148.1039,232.0,GUNDAGAI_RIDGE_STREET,AS
ASN00073138,-34.2493,148.2475,379.6,YOUNG_AIRPORT,AS
ASN00073141,-35.0479,148.1075,250.0,GUNDAGAI_WILLIAM_ST,AS
ASN00073142,-34.6299,148.0364,335.0,COOTAMUNDRA_AIRPORT,AS
ASN00073151,-34.4292,147.5111,280.5,TEMORA_AIRPORT,AS
ASN00074000,-34.3567,146.9032,204.0,ARDLETHAN_POST_OFFICE,AS
ASN00074009,-35.6577,145.8126,119.0,BERRIGAN_POST_OFFICE,AS
ASN00074034,-35.9887,146.3574,143.0,COROWA_AIRPORT,AS
ASN00074037,-34.6223,146.4328,164.0,YANCO_AGRICULTURAL_INSTITUTE,AS
ASN00074039,-35.3667,145.05,91.0,DENILIQUIN_FALKINER_MEMORIAL,AS
ASN00074062,-34.567,146.4114,140.0,LEETON_CARAVAN_PARK,AS
ASN00074069,-35.8119,144.901,105.0,MATHOURA_STATE_FOREST,AS
ASN00074106,-35.817,145.6004,114.0,TOCUMWAL_AIRPORT,AS
ASN00074110,-35.3305,146.2652,125.0,URANA_POST_OFFICE,AS
ASN00074114,-35.1311,147.3091,222.0,WAGGA_WAGGA_RESEARCH_CENTRE,AS
ASN00074128,-35.5269,144.952,93.0,DENILIQUIN_WILKINSON_ST,AS
ASN00074148,-34.7071,146.5126,145.0,NARRANDERA_AIRPORT,AS
ASN00074221,-34.7325,146.5592,173.0,NARRANDERA_GOLF_CLUB,AS
ASN00074258,-35.5575,144.9458,94.0,DENILIQUIN_AIRPORT_AWS,AS
ASN00075028,-34.3183,146.0667,126.0,GRIFFITH_CSIRO,AS
ASN00075031,-34.5194,144.8545,93.3,HAY_MILLER_STREET,AS
ASN00075032,-33.4915,145.5249,122.0,HILLSTON_AIRPORT,AS
ASN00075039,-33.2833,146.3707,169.0,LAKE_CARGELLIGO_AIRPORT,AS
ASN00075041,-34.2487,146.0695,134.0,GRIFFITH_AIRPORT_AWS,AS
ASN00075050,-33.6104,146.3161,192.0,NARADHAN_URALBA,AS
ASN00075079,-34.2502,146.1897,129.0,YENDA_HENRY_STREET,AS
ASN00076026,-34.2133,142.04,56.4,MERBEIN_CSIRO_RESEARCH_STATION,AS
ASN00076031,-34.2358,142.0867,50.0,MILDURA_AIRPORT,AS
ASN00076047,-35.0694,142.3158,50.3,OUYEN_POST_OFFICE,AS
ASN00076064,-35.1201,142.004,105.0,WALPEUP_RESEARCH,AS
ASN00076077,-34.1833,142.2,53.9,MILDURA_POST_OFFICE,AS
ASN00077004,-35.9384,142.4202,100.0,BEULAH,AS
ASN00077007,-35.9825,142.9156,102.0,BIRCHIP_POST_OFFICE,AS
ASN00077010,-35.7151,142.3569,77.3,HOPETOUN_AIRPORT,AS
ASN00077035,-35.8974,141.995,88.0,RAINBOW_POST_OFFICE,AS
ASN00077042,-35.3406,143.5533,70.0,SWAN_HILL_POST_OFFICE,AS
ASN00077094,-35.3766,143.5416,71.0,SWAN_HILL_AERODROME,AS
ASN00078011,-36.4,143.0,114.0,DONALD_POST_OFFICE,AS
ASN00078015,-36.3092,141.6486,138.9,NHILL_AERODROME,AS
ASN00078031,-36.3347,141.6367,133.0,NHILL,AS
ASN00078034,-36.3667,140.9833,118.9,SERVICETON,AS
ASN00078072,-36.3697,142.9709,114.0,DONALD,AS
ASN00078077,-36.2614,142.405,113.4,WARRACKNABEAL_MUSEUM,AS
ASN00078086,-36.14,141.9878,85.0,JEPARIT,AS
ASN00079023,-36.6613,142.0687,128.0,HORSHAM_POLKEMMET_RD,AS
ASN00079028,-36.6722,142.2991,133.0,LONGERENONG,AS
ASN00079040,-36.6189,143.2631,240.0,ST_ARNAUD,AS
ASN00079042,-37.1,142.8,231.3,STAWELL,AS
ASN00079080,-37.0717,142.7908,203.0,STAWELL,AS
ASN00079097,-37.1169,141.8031,188.8,KANAGULK,AS
ASN00079099,-37.0222,141.2657,155.0,EDENHOPE_AIRPORT,AS
ASN00079100,-36.6697,142.1731,133.8,HORSHAM_AERODROME,AS
ASN00079103,-37.295,142.6039,1150.0,GRAMPIANS_MOUNT_WILLIAM,AS
ASN00079105,-37.068,142.7412,227.9,STAWELL_AERODROME,AS
ASN00080002,-36.116,143.7229,90.0,BOORT,AS
ASN00080006,-36.3,143.4,116.7,CHARLTON_POST_OFFICE,AS
ASN00080015,-36.1647,144.7642,96.0,ECHUCAAERODROME,AS
ASN00080023,-35.7236,143.9197,77.7,KERANG,AS
ASN00080043,-36.1,145.45,108.0,NUMURKAH_POST_OFFICE,AS
ASN00080049,-36.3613,144.7108,114.0,ROCHESTER,AS
ASN00080091,-36.335,145.0638,105.0,KYABRAM_DPI,AS
ASN00080128,-36.2847,143.3341,131.7,CHARLTON,AS
ASN00081003,-36.7533,144.2825,225.3,BENDIGO_PRISON,AS
ASN00081049,-36.4378,145.2672,114.0,TATURA_INST_SUSTAINABLE_AG,AS
ASN00081084,-36.3608,145.4594,113.4,LEMNOS_CAMPBELLS_SOUP,AS
ASN00081123,-36.7395,144.3266,208.0,BENDIGO_AIRPORT,AS
ASN00081124,-36.0294,146.0306,128.9,YARRAWONGA,AS
ASN00081125,-36.4289,145.3947,113.9,SHEPPARTON_AIRPORT,AS
ASN00082001,-36.3702,146.7132,580.0,BEECHWORTH_COMPOSITE,AS
ASN00082002,-36.5483,145.9703,169.5,BENALLA_SHADFORTH_STREET,AS
ASN00082011,-36.2003,147.8956,313.5,CORRYONG_PARISH_LANE,AS
ASN00082016,-36.7545,145.5727,181.0,EUROA,AS
ASN00082034,-36.5667,146.7333,222.5,MYRTLEFORD_POST_OFFICE,AS
ASN00082039,-36.1047,146.5094,175.0,RUTHERGLEN_RESEARCH,AS
ASN00082042,-36.8472,145.7308,502.0,STRATHBOGIE,AS
ASN00082053,-36.3667,146.3,150.0,WANGARATTA,AS
ASN00082056,-36.1167,146.9,152.0,WODONGA_EXPRESS,AS
ASN00082076,-36.5353,147.4984,365.0,DARTMOUTH_RESERVOIR,AS
ASN00082100,-36.1333,147.0,198.0,BONEGILLA,AS
ASN00082138,-36.4206,146.3056,152.6,WANGARATTA_AERO,AS
ASN00082139,-36.2136,147.5394,981.0,HUNTERS_HILL,AS
ASN00082169,-36.1828,147.8938,290.0,CORRYONG_AIRPORT,AS
ASN00083004,-36.8056,147.2239,718.0,BOGONG,AS
ASN00083014,-36.9833,147.15,1783.1,HOTHAM_HEIGHTS,AS
ASN00083023,-36.745,147.1633,365.8,MOUNT_BEAUTY,AS
ASN00083024,-37.145,146.4394,1707.0,MOUNT_BULLER,AS
ASN00083025,-37.1011,147.598,685.0,OMEO_COMPARISON,AS
ASN00083033,-37.5696,146.2541,680.0,WOODS_POINT,AS
ASN00083055,-37.0491,147.3347,1295.4,DINNER_PLAIN_MOUNT_HOTHAM_AIR,AS
ASN00083067,-36.7313,146.9614,319.0,BRIGHT,AS
ASN00083073,-36.722,146.8189,1350.0,MOUNT_BUFFALO_CHALET,AS
ASN00083084,-36.8708,147.2755,1765.0,FALLS_CREEK,AS
ASN00083085,-36.9767,147.1342,1849.0,MOUNT_HOTHAM,AS
ASN00083090,-37.1017,147.6008,689.8,OMEO,AS
ASN00084016,-37.5679,149.9158,15.2,GABO_ISLAND_LIGHTHOUSE,AS
ASN00084030,-37.6917,148.4589,41.0,ORBOST_COMPARISON,AS
ASN00084070,-37.8017,149.2747,27.0,POINT_HICKS_LIGHTHOUSE,AS
ASN00084080,-37.8167,147.6167,14.0,BAIRNSDALE_POST_OFFICE,AS
ASN00084083,-37.8692,147.9961,43.0,LAKES_ENTRANCE,AS
ASN00084084,-37.5976,149.7289,22.0,MALLACOOTA,AS
ASN00084108,-37.8333,147.65,5.0,BAIRNSDALE,AS
ASN00084142,-37.22,148.2625,755.0,GELANTIPY,AS
ASN00084143,-37.3417,149.0228,640.0,COMBIENBAR_AWS,AS
ASN00084144,-37.6924,148.0908,350.0,MOUNT_NOWA_NOWA,AS
ASN00084145,-37.6922,148.4667,62.7,ORBOST,AS
ASN00085026,-37.9743,146.3735,445.0,ERICA,AS
ASN00085055,-37.9664,146.9831,27.0,MAFFRA_FORESTRY_OFFICE,AS
ASN00085072,-38.1156,147.1322,4.6,EAST_SALE_AIRPORT,AS
ASN00085079,-37.8,146.2,838.2,TANJIL_BREN,AS
ASN00085093,-38.1731,145.9487,143.0,WARRAGUL,AS
ASN00085096,-39.1297,146.4244,95.0,WILSONS_PROMONTORY_LIGHTHOUSE,AS
ASN00085103,-38.1858,146.3317,153.6,YALLOURN_SEC,AS
ASN00085106,-38.4861,146.3233,182.9,OLSENS_BRIDGE_MORWELL_RIVER_P,AS
ASN00085153,-37.9,146.0,243.8,NOOJEE,AS
ASN00085199,-38.0992,146.3792,190.0,MOONDARRA_RESERVOIR,AS
ASN00085240,-38.2456,145.9347,167.0,ELLINBANK_DAIRY_RESEARCH_INST,AS
ASN00085277,-37.9039,145.9719,275.0,NOOJEE_SLIVAR,AS
ASN00085279,-37.8817,147.5669,49.4,BAIRNSDALE_AIRPORT,AS
ASN00085280,-38.2094,146.4747,55.7,MORWELL_LATROBE_VALLEY_AIRPOR,AS
ASN00085291,-37.8383,146.2747,1561.0,MOUNT_BAW_BAW,AS
ASN00085296,-37.7481,147.1428,480.0,MOUNT_MOORNAPA,AS
ASN00085298,-38.1072,147.1317,4.6,EAST_SALE_COMPARISON,AS
ASN00086017,-38.4931,144.8858,79.3,CAPE_SCHANCK_LIGHTHOUSE,AS
ASN00086033,-37.9252,145.0254,33.0,BRIGHTON_DENDY_PARK_BOWLING_C,AS
ASN00086038,-37.7276,144.9066,78.4,ESSENDON_AIRPORT,AS
ASN00086050,-37.6833,145.5333,131.1,HEALESVILLE_BADGER_CRK_SANCTU,AS
ASN00086060,-37.8167,145.0333,59.7,KEW,AS
ASN00086068,-37.7408,145.0972,66.1,VIEWBANK_ARPANSA,AS
ASN00086071,-37.8075,144.97,31.2,MELBOURNE_REGIONAL_OFFICE,AS
ASN00086077,-37.98,145.0964,12.1,MOORABBIN_AIRPORT,AS
ASN00086079,-38.2358,145.0667,46.0,MORNINGTON,AS
ASN00086082,-38.2,145.1,106.7,MOUNT_ELIZA,AS
ASN00086094,-37.8631,145.7428,189.1,POWELLTOWN_DNRE,AS
ASN00086097,-38.3167,144.6667,6.1,PORTSEA_QUARANTINE_STATION,AS
ASN00086104,-37.871,145.2561,80.0,SCORESBY_RESEARCH_INSTITUTE,AS
ASN00086116,-38.1667,145.4,3.0,TOORADIN,AS
ASN00086122,-37.7,145.0833,103.6,WATSONIA_LOYOLA,AS
ASN00086127,-38.6078,145.5965,51.9,WONTHAGGI,AS
ASN00086142,-37.572,145.5014,595.0,TOOLANGI_MOUNT_ST_LEONARD_DPI,AS
ASN00086147,-38.0333,145.1,5.0,ASPENDALE_CSIRO,AS
ASN00086243,-37.8306,145.35,600.0,MOUNT_DANDENONG_GTV9,AS
ASN00086282,-37.6655,144.8321,113.4,MELBOURNE_AIRPORT,AS
ASN00086306,-38.3833,145.2167,2.0,STONY_POINT,AS
ASN00086351,-37.7163,145.0453,83.0,BUNDOORA_LATROBE_UNIVERSITY,AS
ASN00086361,-38.3646,145.1785,12.7,CERBERUS,AS
ASN00086371,-38.1481,145.1156,6.0,FRANKSTON_AWS,AS
ASN00086372,-37.8775,145.3364,561.0,FERNY_CREEK_DUNNS_HILL,AS
ASN00086373,-38.4612,145.3101,13.4,RHYLL,AS
ASN00086375,-38.1348,145.2637,85.0,CRANBOURNE_BOTANIC_GARDENS,AS
ASN00086383,-37.7239,145.4094,83.0,COLDSTREAM,AS
ASN00087005,-37.6,144.2,442.0,BALLAN_FISKVILLE,AS
ASN00087021,-37.8233,144.2078,365.8,DURDIDWARRAH,AS
ASN00087025,-38.1167,144.3667,17.1,GEELONG_SEC,AS
ASN00087031,-37.8565,144.7566,20.1,LAVERTON_RAAF,AS
ASN00087036,-37.4155,144.5569,505.0,MACEDON_FORESTRY,AS
ASN00087038,-37.775,144.8767,20.0,MARIBYRNONG_EXPLOSIVES_FACTORY,AS
ASN00087054,-38.2714,144.6621,15.0,QUEENSCLIFF,AS
ASN00087065,-37.9,144.6833,24.0,WERRIBEE_RESEARCH_FARM,AS
ASN00087100,-38.2939,144.6142,12.2,POINT_LONSDALE_LIGHTHOUSE,AS
ASN00087113,-38.0287,144.4783,10.6,AVALON_AIRPORT,AS
ASN00087117,-38.085,144.3356,54.9,GEELONG_NORLANE,AS
ASN00087163,-38.2241,144.3345,33.4,GROVEDALE_GEELONG_AIRPORT,AS
ASN00087166,-38.0958,144.5361,18.0,POINT_WILSON,AS
ASN00087168,-37.9075,144.1303,236.7,SHEOAKS,AS
ASN00088001,-37.1916,145.7116,221.0,ALEXANDRA_POST_OFFICE,AS
ASN00088014,-37.1,144.2,310.9,CASTLEMAINE_POST_OFFICE,AS
ASN00088015,-37.3049,143.7776,332.0,CLUNES,AS
ASN00088019,-37.4172,143.8789,430.0,CRESWICK,AS
ASN00088023,-37.2313,145.9124,230.0,LAKE_EILDON,AS
ASN00088036,-37.25,144.45,509.0,KYNETON_POST_OFFICE,AS
ASN00088041,-36.9989,144.0703,320.0,MALDON_DERBY_HILL,AS
ASN00088043,-37.056,143.732,249.3,MARYBOROUGH,AS
ASN00088051,-37.0194,144.5203,290.0,REDESDALE,AS
ASN00088053,-37.0277,145.1491,145.0,SEYMOUR_SHIRE_DEPOT,AS
ASN00088068,-37.3389,145.8547,838.2,RUBICON_SEC,AS
ASN00088109,-36.8886,145.1859,140.8,MANGALORE_AIRPORT,AS
ASN00088110,-37.0809,144.2392,330.0,CASTLEMAINE_PRISON,AS
ASN00088153,-37.0748,145.722,360.0,SPRING_CREEK_BASIN_TWO,AS
ASN00088162,-37.3807,144.9654,527.8,WALLAN_KILMORE_GAP,AS
ASN00088164,-37.2091,145.8423,637.0,EILDON_FIRE_TOWER,AS
ASN00089000,-37.2833,142.95,332.2,ARARAT_POST_OFFICE,AS
ASN00089002,-37.5127,143.7911,435.2,BALLARAT_AERODROME,AS
ASN00089018,-37.9543,143.3437,178.0,LISMORE_POST_OFFICE,AS
ASN00089085,-37.2775,142.9811,295.0,ARARAT_PRISON,AS
ASN00089105,-37.2822,143.2469,965.0,LOOKOUT_HILL,AS
ASN00089112,-37.7067,142.9378,226.0,WESTMERE,AS
ASN00090011,-38.2331,143.145,165.0,CAMPERDOWN_POST_OFFICE,AS
ASN00090014,-38.4319,141.5419,45.0,CAPE_NELSON_LIGHTHOUSE_COMPARI,AS
ASN00090015,-38.8556,143.5128,82.0,CAPE_OTWAY_LIGHTHOUSE,AS
ASN00090035,-38.2333,143.7925,261.0,COLAC_MOUNT_GELLIBRAND,AS
ASN00090044,-37.7333,142.0167,209.0,HAMILTON,AS
ASN00090048,-38.1355,141.6316,26.8,HEYWOOD_FORESTRY,AS
ASN00090077,-38.2362,142.9166,131.0,TERANG,AS
ASN00090082,-38.3836,142.4814,21.0,WARRNAMBOOL_POST_OFFICE,AS
ASN00090083,-38.6357,143.5127,492.0,WEEAPROINAH,AS
ASN00090103,-37.825,142.0644,200.0,HAMILTON_RESEARCH_STATION,AS
ASN00090134,-38.5304,143.539,89.0,GELLIBRAND_RIVER_FORESTRY,AS
ASN00090135,-37.5909,141.4133,71.0,CASTERTON_SHOWGROUNDS,AS
ASN00090147,-38.3427,143.5848,134.0,COLAC_SHIRE_OFFICE,AS
ASN00090148,-38.5333,143.9833,4.0,LORNE_PIER_HEAD,AS
ASN00090162,-38.3833,141.6333,38.0,PORTLAND_AERO,AS
ASN00090171,-38.3148,141.4705,80.9,PORTLAND_CASHMORE_AIRPORT,AS
ASN00090172,-38.2919,142.4353,75.0,WARRNAMBOOL_AIRPORT,AS
ASN00090173,-37.6486,142.0636,241.1,HAMILTON_AIRPORT,AS
ASN00090174,-38.3933,143.5961,248.1,COLAC_ELLIMINYT,AS
ASN00090175,-38.3906,142.2347,10.0,PORT_FAIRY_AWS,AS
ASN00090176,-38.0737,142.7744,130.0,MORTLAKE_RACECOURSE,AS
ASN00090180,-38.4583,144.0883,95.0,AIREYS_INLET,AS
ASN00090182,-37.583,141.3339,130.6,CASTERTON,AS
ASN00090184,-38.4306,141.5437,45.4,CAPE_NELSON_LIGHTHOUSE,AS
ASN00090186,-38.2867,142.4522,70.8,WARRNAMBOOL_AIRPORT_NDB,AS
ASN00091009,-41.0661,145.9431,8.0,BURNIE_ROUND_HILL,AS
ASN00091022,-41.7219,147.0811,148.0,CRESSY_RESEARCH_STATION_MAIN,AS
ASN00091030,-41.0828,145.7725,155.0,ELLIOTT_RESEARCH_STATION,AS
ASN00091049,-41.5,147.2,24.4,LAUNCESTON_PUMPING_STATION,AS
ASN00091057,-41.0567,146.7883,28.0,LOW_HEAD_COMPARISON,AS
ASN00091079,-41.0867,145.5517,260.0,PREOLENNA,AS
ASN00091080,-41.2083,146.3467,11.0,QUOIBA,AS
ASN00091082,-40.9272,144.7489,77.0,REDPA_GREENES_ROAD,AS
ASN00091091,-41.3831,146.3278,280.0,SHEFFIELD,AS
ASN00091092,-40.8492,145.1125,7.0,SMITHTON_GRANT_STREET,AS
ASN00091094,-40.7642,145.2944,10.0,STANLEY_POST_OFFICE,AS
ASN00091099,-41.2314,145.7061,410.0,TEWKESBURY,AS
ASN00091104,-41.5397,147.2033,166.0,LAUNCESTON_AIRPORT_COMPARISON,AS
ASN00091107,-40.9972,145.7292,12.0,WYNYARD_AIRPORT,AS
ASN00091111,-41.1833,146.3667,12.0,DEVONPORT,AS
ASN00091112,-40.9942,145.7292,9.4,WYNYARD_JACKSON_STREET,AS
ASN00091116,-41.15,147.5167,199.9,SCOTTSDALE_KRAFT_FOODS,AS
ASN00091119,-41.4506,146.1089,590.0,ERRIBA_CRADLE_MOUNTAIN_ROAD,AS
ASN00091123,-41.4667,147.15,137.0,LAUNCESTON_MOUNT_PLEASANT,AS
ASN00091126,-41.1708,146.4267,8.0,DEVONPORT_AIRPORT,AS
ASN00091186,-41.2039,146.265,127.0,FORTHSIDE_RESEARCH_STATION,AS
ASN00091219,-41.1708,147.4883,197.5,SCOTTSDALE_WEST_MINSTONE_ROAD,AS
ASN00091223,-40.9089,144.7094,107.3,MARRAWAH,AS
ASN00091232,-41.18,146.3817,46.0,DEVONPORT_EAST,AS
ASN00091237,-41.4194,147.1222,5.0,LAUNCESTON_TI_TREE_BEND,AS
ASN00091245,-40.6828,144.69,94.0,CAPE_GRIM_BAPS,AS
ASN00091259,-41.1492,145.1517,344.0,LUNCHEON_HILL_FORESTRY,AS
ASN00091269,-41.6839,147.2831,173.0,POWRANNA_TASMANIA_FEEDLOT,AS
ASN00091284,-41.0025,147.3869,52.0,BRIDPORT_SEA_VIEW_VILLAS,AS
ASN00091291,-41.3886,146.3219,294.2,SHEFFIELD_SCHOOL_FARM,AS
ASN00091292,-40.8347,145.0847,7.5,SMITHTON_AERODROME,AS
ASN00091293,-41.0556,146.7856,3.0,LOW_HEAD,AS
ASN00091306,-41.7256,147.0794,148.0,CRESSY_RESEARCH_STATION,AS
ASN00091311,-41.5492,147.2144,166.9,LAUNCESTON_AIRPORT,AS
ASN00092003,-41.8739,148.3036,11.0,BICHENO_COUNCIL_DEPOT,AS
ASN00092012,-41.6428,147.9664,237.0,FINGAL_LEGGE_STREET,AS
ASN00092019,-42.0067,147.7975,575.0,LAKE_LEAKE_ELIZABETH_RIVER,AS
ASN00092027,-42.5519,147.8753,14.0,ORFORD_AUBIN_COURT,AS
ASN00092033,-41.3225,148.2489,5.0,ST_HELENS_POST_OFFICE,AS
ASN00092037,-40.7314,148.1253,11.0,SWAN_ISLAND_LIGHTHOUSE,AS
ASN00092038,-42.1236,148.0731,6.0,SWANSEA_POST_OFFICE,AS
ASN00092045,-40.9928,148.3467,19.7,EDDYSTONE_POINT,AS
ASN00092085,-42.0097,147.7933,580.0,LAKE_LEAKE_CHALET,AS
ASN00092094,-41.4639,148.2644,3.0,SCAMANDER,AS
ASN00092114,-41.9953,148.2794,55.0,FRIENDLY_BEACHES,AS
ASN00092120,-41.3381,148.2792,48.0,ST_HELENS_AERODROME,AS
ASN00092123,-40.7292,148.125,15.0,SWAN_ISLAND,AS
ASN00092124,-42.6619,148.0181,28.0,MARIA_ISLAND_POINT_LESUEUR,AS
ASN00093014,-42.3006,147.3711,406.0,OATLANDS_POST_OFFICE,AS
ASN00093027,-41.79,146.9886,180.0,PALMERSTON,AS
ASN00093053,-42.025,147.4953,186.0,ROSS_THE_BOULEVARDS,AS
ASN00094008,-42.8339,147.5033,4.0,HOBART_AIRPORT,AS
ASN00094010,-43.4892,147.1453,55.0,CAPE_BRUNY_LIGHTHOUSE,AS
ASN00094020,-43.3167,147.0075,17.0,DOVER,AS
ASN00094027,-43.4144,146.8731,35.0,HASTINGS_CHALET,AS
ASN00094029,-42.8897,147.3278,50.5,HOBART_ELLERSLIE_ROAD,AS
ASN00094041,-43.6578,146.2711,146.5,MAATSUYKER_ISLAND_LIGHTHOUSE,AS
ASN00094056,-42.8333,147.3167,31.7,RISDON,AS
ASN00094066,-42.9319,147.2464,720.0,MOUNT_WELLINGTON_THE_SPRINGS,AS
ASN00094069,-42.9831,147.0772,63.0,GROVE_COMPARISON,AS
ASN00094087,-42.8967,147.235,1260.5,MOUNT_WELLINGTON,AS
ASN00094137,-43.1639,146.9172,55.0,GEEVESTON_CEMETERY_ROAD,AS
ASN00094146,-43.1589,146.9197,40.0,GEEVESTON_FOURFOOT,AS
ASN00094155,-43.2397,148.0025,240.0,TASMAN_ISLAND,AS
ASN00094157,-43.1639,147.8333,191.5,PORT_ARTHUR_PALMERS_LOOKOUT,AS
ASN00094166,-43.0903,147.3611,46.0,BULL_BAY_LAURISTON,AS
ASN00094191,-43.2006,146.7683,831.0,HARTZ_MOUNTAIN_KEOGHS_PIMPLE,AS
ASN00094195,-42.4544,147.4614,461.5,TUNNACK_FIRE_STATION,AS
ASN00094198,-43.4886,147.1444,59.7,CAPE_BRUNY_CAPE_BRUNY,AS
ASN00094201,-42.4928,147.1981,238.0,MELTON_MOWBRAY_NORTH_STOCKMAN,AS
ASN00094212,-42.6867,147.4258,45.0,CAMPANIA_KINCORA,AS
ASN00094220,-42.9858,147.0742,65.0,GROVE_RESEARCH_STATION,AS
ASN00095001,-42.3883,147.0061,352.0,BOTHWELL_FRANKLIN_STREET,AS
ASN00095003,-42.7097,146.8983,27.0,BUSHY_PARK_BUSHY_PARK_ESTATES,AS
ASN00095011,-42.7636,146.5972,270.0,MAYDENA,AS
ASN00095015,-42.7833,147.0833,5.0,NEW_NORFOLK,AS
ASN00095018,-42.3003,146.4486,585.0,TARRALEAH_VILLAGE,AS
ASN00095048,-42.4842,146.7106,90.0,OUSE_FIRE_STATION,AS
ASN00095063,-42.7567,146.6239,281.0,MAYDENA_POST_OFFICE,AS
ASN00096002,-42.1419,146.4931,712.0,BRONTE_HEIGHTS,AS
ASN00096003,-42.2811,146.2808,667.0,BUTLERS_GORGE,AS
ASN00096005,-41.6383,145.9444,903.0,CRADLE_VALLEY_WALDHEIM,AS
ASN00096015,-42.1,146.2167,735.0,LAKE_ST_CLAIR_HEC,AS
ASN00096021,-42.05,146.75,939.0,SHANNON_HEC,AS
ASN00096033,-41.8997,146.6694,1057.0,LIAWENEE,AS
ASN00096065,-41.8983,146.6672,1065.0,LIAWENEE_COMPARISON,AS
ASN00096071,-42.1178,146.1772,742.0,LAKE_ST_CLAIR_NATIONAL_PARK,AS
ASN00097000,-42.1986,145.17,19.3,CAPE_SORELL,AS
ASN00097014,-41.4372,145.5258,609.0,WARATAH_MOUNT_ROAD,AS
ASN00097016,-41.8833,145.3333,172.2,ZEEHAN_POST_OFFICE,AS
ASN00097024,-43.0609,146.704,495.0,WARRA,AS
ASN00097034,-42.0967,145.5447,129.0,QUEENSTOWN_7XS,AS
ASN00097047,-41.4892,145.2083,352.0,SAVAGE_RIVER_MINE,AS
ASN00097053,-42.7681,146.0461,322.0,STRATHGORDON_VILLAGE,AS
ASN00097067,-42.1558,145.3267,7.0,STRAHAN_VIVIAN_STREET,AS
ASN00097072,-42.155,145.2908,21.0,STRAHAN_AERODROME,AS
ASN00097073,-41.7772,145.5381,165.0,ROSEBERY_HEC_SUBSTATION,AS
ASN00097083,-43.0425,146.2722,408.0,SCOTTS_PEAK_DAM,AS
ASN00097085,-41.8444,145.5419,1119.5,MOUNT_READ,AS
ASN00098001,-39.9322,143.8486,24.0,CURRIE_POST_OFFICE,AS
ASN00098017,-39.88,143.8831,37.0,KING_ISLAND_AIRPORT,AS
ASN00099001,-39.4764,147.3153,85.0,DEAL_ISLAND,AS
ASN00099005,-40.0911,148.0024,9.0,FLINDERS_ISLAND_AIRPORT,AS
ASXLT009225,-33.9,151.2,92.0,SYDNEY,AS
ASXLT029230,-28.17,145.05,137.0,EULO_POST_OFFICE,AS
ASXLT054021,-25.03,128.28,580.0,GILES,AS
ASXLT086769,-41.98,146.73,1040.0,MIENA_HEC,AS
ASXLT113773,-41.53,146.82,200.0,WESTBURY,AS
ASXLT191334,-31.95,115.5,19.0,PERTH_RO,AS
ASXLT209646,-42.9,147.5,54.0,HOBARTTASMANWAS_949700,AS
ASXLT257862,-43.42,146.97,20.0,SOUTHPORT,AS
ASXLT263670,-32.0,115.9,60.0,PERTHAUSWAS_946080,AS
ASXLT271414,-17.39,145.38,899.0,HERBERTON_POST_OFFIC,AS
ASXLT285759,-18.72,140.55,44.0,DONORS_HILL,AS
ASXLT295596,-36.1,143.2,110.0,WYCHEPROOF_POST_OFFI,AS
ASXLT414197,-34.0,151.2,8.0,SYDNEY_WAS_947680,AS
ASXLT446487,-30.95,121.17,427.0,COOLGARDIECOOLGARDI,AS
ASXLT488216,-35.17,144.7,82.0,WANGANELLA_ZARA,AS
ASXLT615378,-15.5,144.28,165.0,FAIRVIEW,AS
ASXLT661826,-34.55,148.35,370.0,MURRUMBURRAH_POST_OF,AS
ASXLT668051,-38.77,143.67,9.0,APOLLO_BAY_POST_OFFI,AS
ASXLT718732,-33.68,149.57,820.0,ROCKLEY_POST_OFFICE,AS
ASXLT840851,-25.63,118.72,0.0,MEEKATHARRA_PEAK_HI,AS
ASXLT851663,-23.17,114.53,75.0,NYANG_WINNING,AS
ASXLT855373,-34.45,150.47,625.0,MITTAGONG_POOL,AS
ASXLT873439,-16.6,145.7,7.0,CAIRNS,AS
AU000005010,48.05,14.1331,383.0,KREMSMUENSTER,AU
AU000005901,48.2331,16.35,199.0,WIEN,AU
AU000006306,47.8,13.0,437.0,SALZBURG,AU
AU000011801,47.2667,11.4,577.0,INNSBRUCK,AU
AU000015410,47.05,12.95,3106.0,SONNBLICK,AU
AU000016402,47.0831,15.45,366.0,GRAZ,AU
AUE00000159,48.75,15.93,320.0,RETZ_WINDMUEHLE,AU
AUE00000605,48.5,14.5,548.0,FREISTADT,AU
AUE00000606,47.85,16.53,184.0,EISENSTADT_NORDOST,AU
AUE00000607,47.68,15.83,486.0,REICHENAU_RAX,AU
AUE00000608,47.27,9.6,440.0,FELDKIRCH,AU
AUE00000609,47.13,10.55,798.0,LANDECK,AU
AUE00000611,47.22,12.98,931.0,RAURIS,AU
AUE00002016,47.53,14.13,638.0,AIGEN_IM_ENNSTAL,AU
AUE00002217,48.23,14.18,298.0,LINZ,AU
AUE00002219,47.5,9.73,424.0,BREGENZ,AU
AUE00002220,47.22,11.47,2247.0,PATSCHERKOFEL,AU
AUE00002221,47.58,12.17,495.0,KUFSTEIN,AU
AUE00002222,47.77,15.32,875.0,MARIAZELL,AU
AUE00002223,46.83,12.8,659.0,LIENZ,AU
AUE00003305,46.5,14.1,970.0,PLANINA_POD_GOLICO,AU
AUM00011028,48.183,15.617,284.0,ST_POELTEN,AU
AUM00011032,48.667,16.633,207.0,POYSDORF,AU
AUM00011036,48.117,16.567,183.0,WIEN_SCHWECHAT_FLUG,AU
AUM00011144,47.333,12.8,767.0,ZELL_AM_SEE,AU
AUM00011155,47.817,13.717,1620.1,FEUERKOGEL,AU
AUM00011165,47.2,14.75,677.0,ZELTWEG,AU
AUM00011212,46.6,13.667,2160.0,VILLACHERALPE,AU
AUM00011231,46.65,14.333,452.0,KLAGENFURTCIV_MIL,AU
AUM00011343,47.05,12.95,3113.8,SONNBLICKAUTOM,AU
AUM00011389,48.183,15.617,273.0,ST_POELTEN_LANDHAUS,AU
AUXLT015783,48.297,14.286,263.0,LINZ_STADT,AU
AUXLT059046,47.572,14.457,646.0,ADMONT,AU
AUXLT060861,46.8,13.698,688.0,RADENTHEIN,AU
AUXLT061240,46.9728,10.1858,1587.0,GALTUR,AU
AUXLT079416,48.1997,16.5592,154.0,GROSS_ENZERSDORF,AU
AUXLT112968,46.9328,13.1153,735.0,FLATTACH_KLEINDORF,AU
AUXLT113392,48.217,13.475,431.0,RIED,AU
AUXLT188915,47.72,13.63,469.0,BAD_ISCHL,AU
AUXLT323361,48.3297,14.2586,490.0,POSTLINGBERG,AU
AUXLT389311,46.808,13.574,719.0,MILLSTATT,AU
AUXLT437696,48.6,15.3,9999.0,HOHENFURTH,AU
AUXLT457378,47.2489,11.4844,900.0,RINN,AU
AUXLT483644,46.8675,11.0272,1938.0,OBERGURGL_VENT,AU
AUXLT505329,48.62,15.205,505.0,STIFT_ZWETTL,AU
AUXLT568150,48.1919,16.7481,149.0,FUCHSENBIGL,AU
AUXLT580797,47.271,14.779,855.0,SECKAU,AU
AUXLT626283,48.17,16.3883,220.0,WIEN_LAAERBERG,AU
AUXLT631509,48.3,16.4,212.0,WIEN_HOHE_WARTE,AU
AUXLT644088,47.0431,15.1783,414.0,LOBMING,AU
AUXLT724041,47.0736,15.5944,530.0,LASSNITZHOHE,AU
AUXLT758053,47.1106,13.1333,1092.0,BADGASTEIN,AU
AUXLT782426,47.0,15.4333,340.0,GRAZ_THALERHOF,AU
AUXLT817372,48.606,13.84,725.0,KOLLERSCHLAG,AU
AUXLT836182,46.87,15.9,294.0,BAD_GLEICHENBERG,AU
AUXLT854545,48.2906,16.3356,244.0,KLOSTERNEUBURG,AU
AUXLT867839,48.1229,16.135,227.0,WIEN_MARIABRUNN,AU
AUXLT888784,47.1156,15.7081,377.0,GLEISDORF,AU
AUXLT891651,47.383,13.456,858.0,RADSTADT,AU
AUXLT920873,47.961,14.778,360.0,WAIDHOFEN_YBBS,AU
AUXLT945558,47.33,12.737,1973.0,SCHMITTENHOHE,AU
AUXLT979272,47.2,15.47,1436.0,SCHOCKL,AU
AUXLT989796,48.77,15.97,242.0,RETZ,AU
AUXLT997618,47.3,11.4,184.0,WILTEN,AU
AYM00088963,-63.4,-56.983,24.0,BASE_ESPERANZA,AY
AYM00088968,-60.733,-44.733,8.0,BASE_ORCADAS,AY
AYM00089001,-70.3,-2.35,62.0,SANAE_SAF_BASE,AY
AYM00089002,-70.667,-8.25,50.0,NEUMAYER,AY
AYM00089004,-71.7,-2.8,817.0,SANAE_AWS,AY
AYM00089022,-75.45,-26.217,30.0,HALLEY,AY
AYM00089034,-77.867,-34.617,256.0,BASE_BELGRANO_II,AY
AYM00089050,-62.183,-58.883,14.0,BELLINGSHAUSEN_AWS,AY
AYM00089053,-62.233,-58.633,11.0,BASE_JUBANY,AY
AYM00089054,-62.183,-58.85,17.0,DINAMET_URUGUAY,AY
AYM00089055,-64.233,-56.717,198.0,BASE_MARAMBIO,AY
AYM00089056,-62.183,-58.983,48.0,CENTRO_MET_ANTARTICO_PDTE_E,AY
AYM00089057,-62.5,-59.683,5.0,BASE_ARTURO_PRAT,AY
AYM00089058,-62.217,-58.967,10.0,GREAT_WALL,AY
AYM00089059,-63.317,-56.683,10.0,BASE_BERNARDO_O'HIGGINS,AY
AYM00089061,-64.766,-64.083,8.0,PALMER_STATION,AY
AYM00089062,-67.567,-68.117,33.0,ROTHERA,AY
AYM00089063,-65.25,-64.267,11.0,VERNADSKY,AY
AYM00089065,-71.317,-68.283,69.0,FOSSIL_BLUFF,AY
AYM00089066,-68.117,-67.133,7.0,BASE_SAN_MARTIN,AY
AYM00089108,-89.0,-1.017,2755.0,HENRY,AY
AYM00089251,-62.217,-58.75,11.0,KING_SEJONG,AY
AYM00089252,-62.1,-58.4,20.0,FERRAZ,AY
AYM00089257,-75.867,-59.15,40.0,UNIV_WI_ID_8925_LIMBERT_AWS,AY
AYM00089262,-67.017,-61.467,45.0,UNIV_WI_ID_8926_LARSEN_ICE,AY
AYM00089266,-72.2,-60.167,115.0,UNIV_WI_ID_8902_BUTLER_ISLA,AY
AYM00089269,-64.783,-64.067,8.0,BONAPARTE_POINT,AY
AYM00089272,-74.8,-71.483,1589.0,UNIV_WI_ID_8917_SKI_BLU,AY
AYM00089314,-84.6,-115.817,1463.0,THERESA,AY
AYM00089324,-80.0,-119.4,1530.0,BYRD_STATION,AY
AYM00089327,-73.2,-127.05,230.0,MOUNT_SIPLE,AY
AYM00089329,-83.0,-121.383,945.0,HARRY,AY
AYM00089332,-82.617,-137.083,549.0,ELIZABETH,AY
AYM00089345,-81.65,-148.783,620.0,SIPLE_DOME,AY
AYM00089376,-79.983,-178.6,55.0,GILL,AY
AYM00089377,-82.517,-174.45,55.0,LETTAU,AY
AYM00089504,-72.017,2.383,1270.0,TROLL_IN_ANTARKTIS,AY
AYM00089507,-75.0,0.0,2892.0,KOHNENEP9,AY
AYM00089512,-70.767,11.833,119.0,NOVOLAZAREVSKAJA,AY
AYM00089532,-69.0,39.583,21.0,SYOWA,AY
AYM00089542,-67.667,45.85,50.0,MOLODEZNAJA,AY
AYM00089564,-67.6,62.867,16.0,MAWSON,AY
AYM00089571,-68.583,77.95,13.0,DAVIS,AY
AYM00089573,-69.367,76.367,18.0,ZHONGSHAN,AY
AYM00089574,-69.383,76.383,64.0,PROGRESS,AY
AYM00089577,-80.37,77.37,4084.0,DOME_PLATEAU_DOME_A,AY
AYM00089578,-76.42,77.02,2830.0,DOME_PLATEAU_EAGLE,AY
AYM00089592,-66.55,93.017,40.0,MIRNYJ,AY
AYM00089606,-78.45,106.867,3488.0,VOSTOK,AY
AYM00089611,-66.283,110.517,41.0,CASEY,AY
AYM00089642,-66.667,140.017,43.0,DUMONT_D'URVILLE,AY
AYM00089657,-69.5,159.383,291.0,LENINGRADSKAYA,AY
AYM00089661,-73.517,169.75,568.0,CAPE_PHILLIPS,AY
AYM00089662,-74.7,164.1,92.0,BASE_BAIA_TERRA_NOVA,AY
AYM00089664,-77.8833,166.7333,24.1,MCMURDO_SOUND_NAF,AY
AYM00089666,-76.717,162.967,150.0,CAPE_ROSS,AY
AYM00089667,-77.95,166.5,10.0,PEGASUS_NORTH,AY
AYM00089734,-77.317,39.7,3810.0,DOME_FUJI,AY
AYM00089744,-74.017,43.05,3353.0,RELAY_STAT,AY
AYM00089767,-70.9,69.867,84.0,G3,AY
AYM00089768,-78.55,166.65,920.0,MINNA_BLUFF,AY
AYM00089769,-78.467,168.383,50.0,LINDA,AY
AYM00089799,-89.0,89.667,2935.0,NICO,AY
AYM00089811,-66.733,112.833,1368.0,LAW_DOME_SUMMIT,AY
AYM00089828,-75.117,123.367,3250.0,DOME_C_II,AY
AYM00089832,-66.717,139.833,243.0,D_10,AY
AYM00089834,-67.4,138.733,1560.0,D_47,AY
AYM00089864,-74.95,163.683,80.0,MANUELA,AY
AYM00089868,-79.9,169.983,60.0,SCHWERDTFEGER,AY
AYM00089869,-79.95,165.117,75.0,MARILYN,AY
AYM00089872,-77.9,170.817,45.0,FERRELL,AY
AYM00089873,-83.133,174.167,60.0,ELAINE,AY
AYM00089879,-71.883,171.2,30.0,POSSESSION_IS,AY
AYW00068201,-80.0167,-119.5333,1543.2,BYRD_STN,AY
AYW00087602,-77.4167,163.6833,48.2,MARBLE_POINT,AY
AYW00090001,-90.0,0.0,9999.0,AMUNDSEN_SCOTT,AY
AYXLT036763,-62.98,-60.57,8.0,DECEPTION_ISLAND,AY
AYXLT068358,-71.43,-68.93,780.0,URANUS_GLACIER,AY
AYXLT096289,-64.88,-62.88,1.0,BASE_ALMIRANTE_BROWN,AY
AYXLT139919,-74.5,123.0,3280.0,DOME_C,AY
AYXLT157724,-64.8,-64.1,8.0,PALMER,AY
AYXLT276695,-77.9667,-38.8,32.0,BELGRANO_I,AY
AYXLT290165,-65.4,-64.4,11.0,FARADAY,AY
AYXLT303433,-77.22,166.43,70.0,CAPE_BIRD,AY
AYXLT334272,-83.89,-134.14,549.0,BRIANNA,AY
AYXLT433578,-70.7,44.29,2260.0,MIZUHO,AY
AYXLT482067,-60.7083,-45.595,6.0,SIGNY_ISLAND,AY
AYXLT504397,-62.42,-58.88,10.0,CENTRO_METAN,AY
AYXLT545053,-64.97,-60.05,32.0,TENIENTE_MATIENZO_A,AY
AYXLT546296,-63.5,-57.3,18.0,PETREL,AY
AYXLT606419,-67.8,-68.9,26.0,ADELAIDE,AY
AYXLT687815,-77.7,167.7,40.0,WINDLESS_BIGHT,AY
AYXLT825242,-77.85,167.0,20.0,WILLIE_FIELD,AY
AYXLT885346,-63.3,-57.9,10.0,O_HIGGINS,AY
AYXLT975160,-75.42,-59.95,40.0,LIMBERT,AY
BA000041150,26.267,50.65,2.0,BAHRAIN_INT_AIRPO,BA
BB000078954,13.067,-59.483,52.0,GRANTLEY_ADAMS,BB
BBXLT302406,13.1,-59.63,131.0,JOE'S_RIVER,BB
BBXLT311247,13.13,-59.6,58.0,CODRINGTON,BB
BBXLT686515,13.15,-59.62,113.0,CARIBBEAN_MET_INSTI,BB
BBXLT904335,13.13,-59.67,9.0,BARBADOS,BB
BC000068026,-18.367,21.85,1000.0,SHAKAWE,BC
BC000068032,-19.983,23.417,943.0,MAUN,BC
BC000068226,-24.017,21.883,1100.0,TSHANE,BC
BC000068328,-26.05,22.45,1000.0,TSABONG,BC
BC004612080,-26.467,20.617,879.0,TWEE_RIVIEREN,BC
BC005847300,-24.667,25.917,1000.0,GABORONE,BC
BC007137570,-23.12,25.43,1005.0,MAHALAPYE,BC
BC008382520,-21.7,21.65,1100.0,GHANZI,BC
BC008948490,-21.217,27.5,1001.0,FRANCISTOWN,BC
BC012192590,-17.817,25.15,1002.0,KASANE,BC
BCM00068030,-18.533,25.633,1071.0,PANDAMATENGA,BC
BDM00078016,32.3667,-64.6833,6.1,L_F_WADE_INTL_AP_KINDLEY_FLD,BD
BDW00013602,32.2667,-64.85,13.1,BERMUDA,BD
BDXLT369737,32.3,-64.78,46.0,HAMILTON,BD
BE000006447,50.8,4.35,104.0,UCCLE,BE
BE000006470,50.8,5.2,75.0,ST_TRUIDEN_BAFB,BE
BEE00000934,51.2403,2.9206,9.0,OOSTENDE,BE
BEE00000935,51.2,4.4667,14.0,DEURNE_RLW,BE
BEE00000937,51.1831,3.5619,8.0,EEKLO,BE
BEE00000938,50.5728,3.83,63.0,CHIEVRES,BE
BEE00000940,51.1689,5.4628,64.0,KLEINE_BROGEL,BE
BEE00000943,50.7458,4.95,127.0,BEAUVECHAIN,BE
BEE00000944,50.6381,5.4489,178.0,BIERSET,BE
BEE00000945,50.0983,4.5978,240.0,DOURBES,BE
BEE00000949,49.5742,5.5256,255.0,VIRTON,BE
BEE00000950,50.8989,3.1239,28.0,BEITEM,BE
BEE00000952,50.2392,4.6608,299.0,FLORENNES,BE
BEE00000954,50.4825,6.1831,570.0,ELSENBORN,BE
BEE00002178,51.0831,2.65,9.0,KOKSIJDE,BE
BEE00002179,50.0392,5.4017,557.0,SAINT_HUBERT,BE
BEE00004565,50.6417,6.2064,440.0,ROETGEN,BE
BEM00006428,50.933,3.667,37.0,SEMMERZAKE,BE
BEM00006449,50.467,4.45,187.0,CHARLEROI_GOSSELIES,BE
BEM00006451,50.9,4.533,56.0,BRUXELLES_NATIONAL,BE
BF000078073,25.05,-77.467,5.0,NASSAU_AIRPORT_NEW,BF
BFM00078062,26.55,-78.7,2.0,FREEPORT,BF
BFXLT399465,22.37,-72.97,1.0,ABRAHAMS_BAY_MAYAGUA,BF
BFXLT562419,25.05,-77.33,5.0,NASSAU,BF
BGM00041859,25.733,89.233,34.0,RANGPUR,BG
BGM00041883,24.85,89.367,20.0,BOGRA,BG
BGM00041891,24.963,91.867,15.2,OSMANY_INTL,BG
BGM00041895,24.37,88.7,17.0,RAJSHAHI,BG
BGM00041907,24.153,89.049,13.7,ISHURDI,BG
BGM00041923,23.779,90.383,7.3,TEJGAON,BG
BGM00041936,23.184,89.161,6.1,JESSORE,BG
BGM00041943,23.033,91.417,8.0,FENI,BG
BGM00041950,22.75,90.367,4.0,BARISAL,BG
BGM00041978,22.25,91.813,3.7,SHAH_AMANAT_INTL,BG
BGM00041992,21.452,91.964,3.7,COXS_BAZAR,BG
BGXLT044648,23.43,91.18,10.0,COMILLA,BG
BGXLT082992,22.86,91.1,5.0,MAIJDE_COURT,BG
BGXLT275724,23.77,90.72,8.0,DACCA_TEZGAON,BG
BGXLT303710,22.85,89.56,9999.0,KHULNA,BG
BGXLT396425,23.6,89.85,9.0,FARODPUR,BG
BGXLT407536,24.45,89.75,16.0,SIRAJGANI,BG
BGXLT428269,24.02,89.23,15.0,PABNA,BG
BGXLT435877,23.62,90.5,8.0,NARAYANJAN,BG
BGXLT440631,24.3,91.73,21.0,SRIMANGAL,BG
BGXLT525000,22.72,89.08,6.0,SATKHIRA,BG
BGXLT569532,23.98,91.12,10.0,BRAHMANBARIA,BG
BGXLT792072,25.65,88.68,37.0,DINAJPUR,BG
BGXLT823344,22.35,91.83,27.0,CHITTAGONG,BG
BGXLT840267,24.75,90.45,19.0,MYMENSINGH,BG
BGXLT964217,24.9,91.88,35.0,SYLHET,BG
BGXLT967140,22.63,92.2,63.0,RANGAMATI,BG
BH070350100,16.97,-89.0,52.0,AUGUSTINE_CAYO,BH
BH070356550,17.92,-87.97,9999.0,SAN_PEDRO_AMBERGRIS_CAYO,BH
BHM00078583,17.539,-88.308,4.6,PHILIP_S_W_GOLDSON_INTL,BH
BHXLT326047,17.52,-88.18,17.0,BRITISH_HOND,BH
BHXLT644860,16.12,-88.78,9999.0,PUNTA_GO,BH
BHXLT863874,17.1833,-89.0,9.0,CENTRAL_FARM,BH
BHXLT875546,16.97,-88.23,9999.0,STANN_CR,BH
BHXLT940050,17.0,-88.3,6.0,STANN_CREEK_AGSTAT_BRITISH_HON,BH
BKE00008556,44.8078,15.8606,223.0,BIHAC,BK
BKE00008559,43.7392,17.0008,724.0,LIVNO,BK
BKM00014542,44.783,17.217,156.0,BANJA_LUKA,BK
BKM00014557,44.55,18.7,307.0,TUZLA,BK
BKM00014648,43.35,17.8,108.0,MOSTAR,BK
BKM00014652,44.0667,18.2667,2067.0,BJELASNICA,BK
BKM00014654,43.8667,18.4331,630.0,SARAJEVO,BK
BKXLT167679,43.82,18.33,511.0,SARAJEVO_BUTMIR,BK
BKXLT219790,43.72,18.27,2070.0,BJELASNICA_MTN_RNG,BK
BKXLT994574,44.35,17.27,431.0,JAJCE,BK
BL000085041,-11.03,-68.78,9999.0,COBIJA,BL
BL000085043,-11.0,-66.117,141.0,RIBERALTA,BL
BL000085114,-13.333,-64.117,140.0,MAGDALENA,BL
BL000085141,-14.47,-67.57,9999.0,RURRENABAQUE,BL
BL000085223,-17.42,-66.18,9999.0,COCHABAMBA,BL
BL000085230,-17.58,-69.6,9999.0,CHARANA,BL
BL000085364,-21.55,-64.7,1854.0,TARIJA,BL
BL000085365,-21.95,-63.65,9999.0,YACUIBA,BL
BLM00085104,-13.067,-64.667,140.0,SAN_JOAQUIN,BL
BLM00085109,-13.3,-64.7,140.0,SAN_RAMON,BL
BLM00085123,-13.762,-65.435,143.9,SANTA_ANA_DEL_YACUMA,BL
BLM00085140,-14.3,-67.367,280.0,REYES,BL
BLM00085151,-14.733,-68.417,1415.0,APOLO,BL
BLM00085152,-14.867,-66.75,194.0,SAN_BORJA_CAPT_GERM,BL
BLM00085153,-14.967,-65.633,241.0,SAN_IGNACIO_DE_MOXO,BL
BLM00085154,-14.819,-64.918,155.1,TTE_AV_JORGE_HENRICH_ARAUZ,BL
BLM00085175,-15.717,-63.1,247.0,ASCENCION_GUARAYOS,BL
BLM00085195,-16.267,-62.467,520.0,SAN_JAVIER,BL
BLM00085196,-16.25,-62.1,497.0,CONCEPCION,BL
BLM00085201,-16.513,-68.192,4061.5,EL_ALTO_INTL,BL
BLM00085207,-16.367,-60.95,413.0,SAN_IGNACIO_VELASCO,BL
BLM00085210,-16.333,-58.383,124.0,SAN_MATIAS,BL
BLM00085242,-17.963,-67.076,3702.1,JUAN_MENDOZA,BL
BLM00085244,-17.645,-63.135,373.4,VIRU_VIRU_INTL,BL
BLM00085245,-17.812,-63.171,417.9,EL_TROMPILLO,BL
BLM00085247,-17.833,-60.75,284.0,SAN_JOSE,BL
